City,CityASCII,Latitude,Longitude,Country,ISO2,ISO3,AdminName,Capital,Population
Aībak,Aibak,36.2534,68.0394,Afghanistan,AF,AFG,Samangān,admin,4938
Andkhōy,Andkhoy,36.95,65.1167,Afghanistan,AF,AFG,Fāryāb,minor,37887
Asadābād,Asadabad,34.8742,71.1528,Afghanistan,AF,AFG,Kunaṟ,admin,48400
Baghlān,Baghlan,36.1328,68.7,Afghanistan,AF,AFG,Baghlān,minor,39228
Balkh,Balkh,36.7581,66.8989,Afghanistan,AF,AFG,Balkh,minor,77000
Bāmyān,Bamyan,34.8167,67.8167,Afghanistan,AF,AFG,Bāmyān,admin,61863
Barakī Barak,Baraki Barak,33.9667,68.9667,Afghanistan,AF,AFG,Lōgar,minor,22305
Bāzārak,Bazarak,35.3129,69.5152,Afghanistan,AF,AFG,Panjshir,admin,
Buynī Qarah,Buyni Qarah,36.3172,66.8747,Afghanistan,AF,AFG,Balkh,,5842
Chārīkār,Charikar,35.0183,69.1679,Afghanistan,AF,AFG,Parwān,admin,53676
Faīẕābād,Faizabad,37.1298,70.5792,Afghanistan,AF,AFG,Badakhshān,admin,64704
Farāh,Farah,32.3436,62.1194,Afghanistan,AF,AFG,Farāh,admin,73647
Fayrōz Kōh,Fayroz Koh,34.5225,65.2517,Afghanistan,AF,AFG,Ghōr,admin,15000
Gardēz,Gardez,33.5931,69.2297,Afghanistan,AF,AFG,Paktiyā,admin,70000
Ghaznī,Ghazni,33.5492,68.4233,Afghanistan,AF,AFG,Ghaznī,admin,143379
Herāt,Herat,34.3738,62.1792,Afghanistan,AF,AFG,Herāt,admin,556205
Jalālābād,Jalalabad,34.4303,70.4528,Afghanistan,AF,AFG,Nangarhār,admin,263312
Kabul,Kabul,34.5328,69.1658,Afghanistan,AF,AFG,Kābul,primary,4273156
Kandahār,Kandahar,31.6078,65.7053,Afghanistan,AF,AFG,Kandahār,admin,614254
Karukh,Karukh,34.4868,62.5918,Afghanistan,AF,AFG,Herāt,minor,17484
Khānābād,Khanabad,36.6831,69.1636,Afghanistan,AF,AFG,Kunduz,minor,26803
Khōst,Khost,33.3333,69.9167,Afghanistan,AF,AFG,Khōst,admin,160214
Khulm,Khulm,36.6833,67.6833,Afghanistan,AF,AFG,Balkh,minor,28078
Kōṯah-ye ‘As̲h̲rō,Kotah-ye `Ashro,34.45,68.8,Afghanistan,AF,AFG,Wardak,,35008
Kunduz,Kunduz,36.728,68.8725,Afghanistan,AF,AFG,Kunduz,admin,259809
Lashkar Gāh,Lashkar Gah,31.5938,64.3716,Afghanistan,AF,AFG,Helmand,admin,201546
Maḩmūd-e Rāqī,Mahmud-e Raqi,35.0167,69.3333,Afghanistan,AF,AFG,Kāpīsā,admin,7407
Maīdān Shahr,Maidan Shahr,34.3972,68.8697,Afghanistan,AF,AFG,Wardak,admin,35008
Maīmanah,Maimanah,35.9302,64.7701,Afghanistan,AF,AFG,Fāryāb,admin,199795
Mazār-e Sharīf,Mazar-e Sharif,36.7,67.1167,Afghanistan,AF,AFG,Balkh,admin,469247
Mehtar Lām,Mehtar Lam,34.6683,70.2089,Afghanistan,AF,AFG,Laghmān,admin,17345
Nīlī,Nili,33.7218,66.1302,Afghanistan,AF,AFG,Dāykundī,admin,
Pārūn,Parun,35.4206,70.9226,Afghanistan,AF,AFG,Nūristān,admin,
Pul-e ‘Alam,Pul-e `Alam,33.9953,69.0227,Afghanistan,AF,AFG,Lōgar,admin,
Pul-e Khumrī,Pul-e Khumri,35.95,68.7,Afghanistan,AF,AFG,Baghlān,admin,113500
Qal‘ah-ye Now,Qal`ah-ye Now,34.99,63.12,Afghanistan,AF,AFG,Bādghīs,admin,5340
Qal‘ah-ye Zāl,Qal`ah-ye Zal,37.015,68.4672,Afghanistan,AF,AFG,Kunduz,,18000
Qalāt,Qalat,32.1061,66.9069,Afghanistan,AF,AFG,Zābul,admin,12191
Sar-e Pul,Sar-e Pul,36.2214,65.9278,Afghanistan,AF,AFG,Sar-e Pul,admin,51075
Sharan,Sharan,33.1757,68.7304,Afghanistan,AF,AFG,Paktīkā,admin,
Shibirghān,Shibirghan,36.665,65.752,Afghanistan,AF,AFG,Jowzjān,admin,175599
Tāluqān,Taluqan,36.7167,69.5167,Afghanistan,AF,AFG,Takhār,admin,263800
Tarīn Kōṯ,Tarin Kot,32.6333,65.8667,Afghanistan,AF,AFG,Uruzgān,admin,10000
Zaranj,Zaranj,30.96,61.86,Afghanistan,AF,AFG,Nīmrōz,admin,49851
Zarghūn Shahr,Zarghun Shahr,32.85,68.4167,Afghanistan,AF,AFG,Paktīkā,,13737
Bajram Curri,Bajram Curri,42.3582,20.076,Albania,AL,ALB,Kukës,,5340
Ballsh,Ballsh,40.5991,19.7359,Albania,AL,ALB,Fier,,7657
Belsh,Belsh,40.9833,19.8833,Albania,AL,ALB,Elbasan,,8781
Berat,Berat,40.7049,19.9497,Albania,AL,ALB,Berat,admin,36496
Bilisht,Bilisht,40.6275,20.99,Albania,AL,ALB,Korçë,,7114
Bulqizë,Bulqize,41.5,20.2167,Albania,AL,ALB,Dibër,,8177
Burrel,Burrel,41.6,20,Albania,AL,ALB,Dibër,,10862
Cërrik,Cerrik,41.0333,19.9833,Albania,AL,ALB,Elbasan,,6695
Çorovodë,Corovode,40.5042,20.2272,Albania,AL,ALB,Berat,,4051
Delvinë,Delvine,39.9494,20.0958,Albania,AL,ALB,Vlorë,,5754
Divjakë,Divjake,40.9964,19.5327,Albania,AL,ALB,Fier,,8445
Durrës,Durres,41.3242,19.4558,Albania,AL,ALB,Durrës,admin,113249
Elbasan,Elbasan,41.1125,20.0822,Albania,AL,ALB,Elbasan,admin,78703
Ersekë,Erseke,40.3333,20.6833,Albania,AL,ALB,Korçë,,3746
Fier,Fier,40.7167,19.55,Albania,AL,ALB,Fier,admin,120655
Fushë-Krujë,Fushe-Kruje,41.4833,19.7167,Albania,AL,ALB,Durrës,,18477
Gjirokastër,Gjirokaster,40.0758,20.1389,Albania,AL,ALB,Gjirokastër,admin,23437
Gramsh,Gramsh,40.8667,20.1833,Albania,AL,ALB,Elbasan,,8440
Kamëz,Kamez,41.3833,19.7667,Albania,AL,ALB,Tiranë,,126777
Kavajë,Kavaje,41.1833,19.55,Albania,AL,ALB,Tiranë,,29354
Korçë,Korce,40.6167,20.7667,Albania,AL,ALB,Korçë,admin,51152
Krujë,Kruje,41.5178,19.7978,Albania,AL,ALB,Durrës,,11721
Krumë,Krume,42.1961,20.4146,Albania,AL,ALB,Kukës,,6006
Kuçovë,Kucove,40.8039,19.9144,Albania,AL,ALB,Berat,,12654
Kukës,Kukes,42.0758,20.4231,Albania,AL,ALB,Kukës,admin,16719
Laç,Lac,41.6353,19.7131,Albania,AL,ALB,Lezhë,,17086
Lezhë,Lezhe,41.7805,19.6434,Albania,AL,ALB,Lezhë,admin,15510
Libonik,Libonik,40.75,20.7167,Albania,AL,ALB,Korçë,,8922
Librazhd,Librazhd,41.1833,20.3167,Albania,AL,ALB,Elbasan,,6937
Librazhd-Qendër,Librazhd-Qender,41.1969,20.3356,Albania,AL,ALB,Elbasan,,12691
Lushnjë,Lushnje,40.9333,19.7,Albania,AL,ALB,Fier,,31105
Mamurras,Mamurras,41.5775,19.6922,Albania,AL,ALB,Lezhë,,8282
Patos,Patos,40.6841,19.6194,Albania,AL,ALB,Fier,,15397
Peqin,Peqin,41.05,19.75,Albania,AL,ALB,Elbasan,,6353
Përmet,Permet,40.2333,20.35,Albania,AL,ALB,Gjirokastër,,5945
Peshkopi,Peshkopi,41.6831,20.4289,Albania,AL,ALB,Dibër,admin,13251
Pogradec,Pogradec,40.9,20.65,Albania,AL,ALB,Korçë,,20848
Prrenjas,Prrenjas,41.0667,20.55,Albania,AL,ALB,Elbasan,,5847
Pukë,Puke,42.05,19.9,Albania,AL,ALB,Shkodër,,3607
Roskovec,Roskovec,40.7375,19.7022,Albania,AL,ALB,Fier,,6657
Rrëshen,Rreshen,41.7667,19.8833,Albania,AL,ALB,Lezhë,,8803
Rrogozhinë,Rrogozhine,41.0761,19.6667,Albania,AL,ALB,Tiranë,,7049
Sarandë,Sarande,39.8833,20.0167,Albania,AL,ALB,Vlorë,,41000
Shëngjin,Shengjin,41.8136,19.5939,Albania,AL,ALB,Lezhë,,8091
Shijak,Shijak,41.3456,19.5672,Albania,AL,ALB,Durrës,,7568
Shkodër,Shkoder,42.0667,19.5,Albania,AL,ALB,Shkodër,admin,112276
Sukth,Sukth,41.3833,19.5333,Albania,AL,ALB,Durrës,,15966
Tepelenë,Tepelene,40.3,20.0167,Albania,AL,ALB,Gjirokastër,,4342
Tirana,Tirana,41.33,19.82,Albania,AL,ALB,Tiranë,primary,418495
Vau i Dejës,Vau i Dejes,42,19.6333,Albania,AL,ALB,Shkodër,,8117
Vlorë,Vlore,40.45,19.4833,Albania,AL,ALB,Vlorë,admin,130827
’Aïn Abessa,'Ain Abessa,36.3,5.295,Algeria,DZ,DZA,Sétif,,16770
’Aïn Arnat,'Ain Arnat,36.1833,5.3167,Algeria,DZ,DZA,Sétif,,43551
’Aïn Azel,'Ain Azel,35.8433,5.5219,Algeria,DZ,DZA,Sétif,,48487
’Aïn el Hammam,'Ain el Hammam,36.5714,4.3097,Algeria,DZ,DZA,Tizi Ouzou,,20401
’Aïn Roua,'Ain Roua,36.3344,5.1806,Algeria,DZ,DZA,Sétif,,11499
Abadla,Abadla,31.0167,-2.7333,Algeria,DZ,DZA,Béchar,,14364
Abalessa,Abalessa,22.89,4.8472,Algeria,DZ,DZA,Tamanrasset,,9163
Adrar,Adrar,27.8742,-0.2939,Algeria,DZ,DZA,Adrar,admin,68276
Afir,Afir,36.7676,3.7029,Algeria,DZ,DZA,Boumerdes,,13223
Aïn Beïda,Ain Beida,35.7964,7.3928,Algeria,DZ,DZA,Oum el Bouaghi,,116064
Aïn Defla,Ain Defla,36.2583,1.9583,Algeria,DZ,DZA,Aïn Defla,admin,
Aïn Oussera,Ain Oussera,35.4489,2.9044,Algeria,DZ,DZA,Djelfa,,101239
Aïn Sefra,Ain Sefra,32.75,-0.5833,Algeria,DZ,DZA,Naama,,63420
Aïn Temouchent,Ain Temouchent,35.3044,-1.14,Algeria,DZ,DZA,Aïn Temouchent,admin,
Aïn Zaouïa,Ain Zaouia,36.5483,3.8942,Algeria,DZ,DZA,Tizi Ouzou,,17320
Aït Bou Madhi,Ait Bou Madhi,36.5009,4.2,Algeria,DZ,DZA,Tizi Ouzou,,6113
Aït Yaïch,Ait Yaich,36.5811,4.3303,Algeria,DZ,DZA,Tizi Ouzou,,14439
Akbou,Akbou,36.4667,4.5333,Algeria,DZ,DZA,Bejaïa,,52282
Algiers,Algiers,36.7764,3.0586,Algeria,DZ,DZA,Alger,primary,3415811
Amalou,Amalou,36.4778,4.6333,Algeria,DZ,DZA,Bejaïa,,8602
Amoucha,Amoucha,36.388,5.4108,Algeria,DZ,DZA,Sétif,,22767
Annaba,Annaba,36.9,7.7667,Algeria,DZ,DZA,Annaba,admin,257359
Aomar,Aomar,36.5,3.7833,Algeria,DZ,DZA,Bouira,,20532
Arbaoun,Arbaoun,36.4667,5.65,Algeria,DZ,DZA,Sétif,,19383
Arhribs,Arhribs,36.8022,4.3227,Algeria,DZ,DZA,Tizi Ouzou,,12474
Azazga,Azazga,36.7453,4.3711,Algeria,DZ,DZA,Tizi Ouzou,,34683
Azeffoun,Azeffoun,36.8961,4.4204,Algeria,DZ,DZA,Tizi Ouzou,,16847
Azzaba,Azzaba,36.7333,7.1,Algeria,DZ,DZA,Skikda,,56922
Batna,Batna,35.55,6.1667,Algeria,DZ,DZA,Batna,admin,290645
Béchar,Bechar,31.6333,-2.2,Algeria,DZ,DZA,Béchar,admin,165627
Bechloul,Bechloul,36.3167,4.0667,Algeria,DZ,DZA,Bouira,,11775
Bejaïa,Bejaia,36.7511,5.0642,Algeria,DZ,DZA,Bejaïa,admin,176139
Ben N’Choud,Ben N'Choud,36.8624,3.8806,Algeria,DZ,DZA,Boumerdes,,9985
Ben Nasseur,Ben Nasseur,33.1107,6.441,Algeria,DZ,DZA,Ouargla,,10330
Beni Abbès,Beni Abbes,30.08,-2.1,Algeria,DZ,DZA,Béchar,admin,10885
Beni Aïssi,Beni Aissi,29.6,0.25,Algeria,DZ,DZA,Adrar,,7628
Beni Amrane,Beni Amrane,36.6686,3.5922,Algeria,DZ,DZA,Boumerdes,,23621
Beni Douala,Beni Douala,36.6167,4.0667,Algeria,DZ,DZA,Tizi Ouzou,,21551
Beni Fouda,Beni Fouda,36.2861,5.6071,Algeria,DZ,DZA,Sétif,,17667
Beni Ounif,Beni Ounif,32.05,-1.25,Algeria,DZ,DZA,Béchar,,5628
Bir Ghbalou,Bir Ghbalou,36.2631,3.5866,Algeria,DZ,DZA,Médéa,,11016
Biskra,Biskra,34.85,5.7333,Algeria,DZ,DZA,Biskra,admin,204661
Blida,Blida,36.4722,2.8333,Algeria,DZ,DZA,Blida,admin,331779
Boghni,Boghni,36.5437,3.9523,Algeria,DZ,DZA,Tizi Ouzou,,31263
Bordj Bou Arreridj,Bordj Bou Arreridj,36.0667,4.7667,Algeria,DZ,DZA,Bordj Bou Arréridj,admin,168346
Bordj Menaïel,Bordj Menaiel,36.7417,3.7231,Algeria,DZ,DZA,Boumerdes,,64820
Bordj Mokhtar,Bordj Mokhtar,21.3289,0.9542,Algeria,DZ,DZA,Adrar,admin,16437
Bordj Okhriss,Bordj Okhriss,36.0833,3.9667,Algeria,DZ,DZA,Bouira,,10467
Bou Nouh,Bou Nouh,36.5,3.9333,Algeria,DZ,DZA,Tizi Ouzou,,9731
Bou Saâda,Bou Saada,35.2083,4.1739,Algeria,DZ,DZA,M’sila,,111787
Boudjima,Boudjima,36.814,4.1588,Algeria,DZ,DZA,Tizi Ouzou,,15628
Boufarik,Boufarik,36.575,2.9097,Algeria,DZ,DZA,Blida,,57162
Bouira,Bouira,36.3783,3.8925,Algeria,DZ,DZA,Bouira,admin,68545
Boukhralfa,Boukhralfa,36.6144,5.0872,Algeria,DZ,DZA,Bejaïa,,8766
Boumerdes,Boumerdes,36.7594,3.4728,Algeria,DZ,DZA,Boumerdes,admin,41685
Charouine,Charouine,29.0167,-0.2667,Algeria,DZ,DZA,Adrar,,11347
Chlef,Chlef,36.1647,1.3317,Algeria,DZ,DZA,Chlef,admin,155134
Chorfa,Chorfa,36.3617,4.3307,Algeria,DZ,DZA,Bouira,,16173
Constantine,Constantine,36.365,6.6147,Algeria,DZ,DZA,Constantine,admin,448374
Dellys,Dellys,36.9167,3.8833,Algeria,DZ,DZA,Boumerdes,,32954
Didouche Mourad,Didouche Mourad,36.4484,6.6339,Algeria,DZ,DZA,Constantine,,33266
Djanet,Djanet,24.555,9.4853,Algeria,DZ,DZA,Illizi,admin,14655
Djelfa,Djelfa,34.6667,3.25,Algeria,DZ,DZA,Djelfa,admin,265833
Djinet,Djinet,36.877,3.7231,Algeria,DZ,DZA,Boumerdes,,21966
Draa Ben Khedda,Draa Ben Khedda,36.7349,3.9556,Algeria,DZ,DZA,Boumerdes,,31382
Draa el Mizan,Draa el Mizan,36.5333,3.8333,Algeria,DZ,DZA,Bouira,,38886
El Adjiba,El Adjiba,36.3333,4.15,Algeria,DZ,DZA,Bouira,,12486
El Bayadh,El Bayadh,33.6831,1.0192,Algeria,DZ,DZA,El Bayadh,admin,85577
El Eulma,El Eulma,36.1528,5.69,Algeria,DZ,DZA,Sétif,,155038
El Golea,El Golea,30.6,2.9,Algeria,DZ,DZA,Ghardaïa,admin,40195
El Maïn,El Main,36.3667,4.75,Algeria,DZ,DZA,Bejaïa,,6238
El Meghaïer,El Meghaier,33.9506,5.9242,Algeria,DZ,DZA,El Oued,admin,
El Milia,El Milia,36.75,6.2667,Algeria,DZ,DZA,Jijel,,83931
El Oued,El Oued,33.3683,6.8675,Algeria,DZ,DZA,El Oued,admin,134699
El Tarf,El Tarf,36.7669,8.3136,Algeria,DZ,DZA,El Tarf,admin,25594
Es Senia,Es Senia,35.6478,-0.6239,Algeria,DZ,DZA,Oran,,96928
Freha,Freha,36.762,4.3163,Algeria,DZ,DZA,Tizi Ouzou,,24228
Ghardaïa,Ghardaia,32.4833,3.6667,Algeria,DZ,DZA,Ghardaïa,admin,120000
Guelma,Guelma,36.4619,7.4258,Algeria,DZ,DZA,Guelma,admin,120004
Hassi Messaoud,Hassi Messaoud,31.7,6.0667,Algeria,DZ,DZA,Ouargla,,45147
Iferhounene,Iferhounene,36.5338,4.3701,Algeria,DZ,DZA,Tizi Ouzou,,12460
Ifigha,Ifigha,36.6667,4.4167,Algeria,DZ,DZA,Tizi Ouzou,,9160
Iflissen,Iflissen,36.8636,4.2203,Algeria,DZ,DZA,Tizi Ouzou,,14311
Illizi,Illizi,26.508,8.4829,Algeria,DZ,DZA,Illizi,admin,17252
In Guezzam,In Guezzam,19.5686,5.7722,Algeria,DZ,DZA,Tamanrasset,admin,7045
I-n-Amenas,I-n-Amenas,28.05,9.55,Algeria,DZ,DZA,Illizi,,9225
I-n-Amguel,I-n-Amguel,23.6936,5.1647,Algeria,DZ,DZA,Tamanrasset,,3030
I-n-Salah,I-n-Salah,27.1936,2.4606,Algeria,DZ,DZA,Tamanrasset,admin,32518
Jijel,Jijel,36.8206,5.7667,Algeria,DZ,DZA,Jijel,admin,131513
Kadiria,Kadiria,36.5333,3.6833,Algeria,DZ,DZA,Bouira,,22327
Khenchela,Khenchela,35.4167,7.1333,Algeria,DZ,DZA,Khenchela,admin,108580
L’Arbaa Naït Irathen,L'Arbaa Nait Irathen,36.6367,4.2067,Algeria,DZ,DZA,Tizi Ouzou,,29376
Laghouat,Laghouat,33.8,2.865,Algeria,DZ,DZA,Laghouat,admin,134372
Lakhdaria,Lakhdaria,36.6167,3.5833,Algeria,DZ,DZA,Bouira,,59746
M’Sila,M'Sila,35.7058,4.5419,Algeria,DZ,DZA,M’sila,admin,150000
Makouda,Makouda,36.7909,4.0669,Algeria,DZ,DZA,Boumerdes,,23388
Mascara,Mascara,35.4,0.1333,Algeria,DZ,DZA,Mascara,admin,108587
Mecheria,Mecheria,33.55,-0.2833,Algeria,DZ,DZA,Naama,,65043
Mechtras,Mechtras,36.5448,4.0049,Algeria,DZ,DZA,Tizi Ouzou,,12683
Médéa,Medea,36.2675,2.75,Algeria,DZ,DZA,Médéa,admin,138355
Mekla,Mekla,36.6876,4.2681,Algeria,DZ,DZA,Tizi Ouzou,,24237
Messaad,Messaad,34.1542,3.4969,Algeria,DZ,DZA,Djelfa,,102453
Mila,Mila,36.4481,6.2622,Algeria,DZ,DZA,Mila,admin,
Mostaganem,Mostaganem,35.9333,0.0903,Algeria,DZ,DZA,Mostaganem,admin,145696
Moudjbara,Moudjbara,34.5037,3.4704,Algeria,DZ,DZA,Djelfa,,14052
Naama,Naama,33.2678,-0.3111,Algeria,DZ,DZA,Naama,admin,16251
Naciria,Naciria,36.75,3.8333,Algeria,DZ,DZA,Boumerdes,,22431
Oran,Oran,35.6969,-0.6331,Algeria,DZ,DZA,Oran,admin,852000
Ouadhia,Ouadhia,36.55,4.0833,Algeria,DZ,DZA,Tizi Ouzou,,15771
Ouargla,Ouargla,31.95,5.3167,Algeria,DZ,DZA,Ouargla,admin,133024
Ouled Djellal,Ouled Djellal,34.4167,5.0667,Algeria,DZ,DZA,Biskra,admin,
Ouled Moussa,Ouled Moussa,36.6831,3.3681,Algeria,DZ,DZA,Boumerdes,,45770
Ouled Rached,Ouled Rached,36.2119,4.1106,Algeria,DZ,DZA,Bouira,,9311
Oum el Bouaghi,Oum el Bouaghi,35.8706,7.115,Algeria,DZ,DZA,Oum el Bouaghi,admin,100821
Reggane,Reggane,26.7,0.1667,Algeria,DZ,DZA,Adrar,,20402
Relizane,Relizane,35.7372,0.5558,Algeria,DZ,DZA,Relizane,admin,130094
Saïda,Saida,34.8303,0.1517,Algeria,DZ,DZA,Saïda,admin,128413
Sali,Sali,26.9833,-0.0333,Algeria,DZ,DZA,Adrar,,13138
Seddouk Oufella,Seddouk Oufella,36.6061,4.6389,Algeria,DZ,DZA,Bejaïa,,8931
Sétif,Setif,36.19,5.41,Algeria,DZ,DZA,Sétif,admin,288461
Si Mustapha,Si Mustapha,36.7247,3.6153,Algeria,DZ,DZA,Boumerdes,,12087
Sidi Bel Abbès,Sidi Bel Abbes,35.2,-0.6333,Algeria,DZ,DZA,Sidi Bel Abbès,admin,212935
Sidi Daoud,Sidi Daoud,36.85,3.85,Algeria,DZ,DZA,Boumerdes,,16900
Sidi Namane,Sidi Namane,36.7581,3.9839,Algeria,DZ,DZA,Boumerdes,,10688
Skikda,Skikda,36.8667,6.9,Algeria,DZ,DZA,Skikda,admin,163318
Souama,Souama,36.6417,4.3416,Algeria,DZ,DZA,Tizi Ouzou,,9954
Souk Ahras,Souk Ahras,36.2864,7.9511,Algeria,DZ,DZA,Souk Ahras,admin,155259
Souk el Had,Souk el Had,36.6909,3.5889,Algeria,DZ,DZA,Boumerdes,,6693
Souma,Souma,36.5183,2.9053,Algeria,DZ,DZA,Blida,,37461
Tadmaït,Tadmait,36.7427,3.9019,Algeria,DZ,DZA,Boumerdes,,22838
Takerbouzt,Takerbouzt,36.418,4.3428,Algeria,DZ,DZA,Bouira,,14000
Tala Yfassene,Tala Yfassene,36.4583,5.0889,Algeria,DZ,DZA,Sétif,,20337
Tamanrasset,Tamanrasset,22.785,5.5228,Algeria,DZ,DZA,Tamanrasset,admin,76000
Taourga,Taourga,36.7938,3.9463,Algeria,DZ,DZA,Boumerdes,,7882
Tassamert,Tassamert,36.2693,4.823,Algeria,DZ,DZA,Bordj Bou Arréridj,,5269
Tébessa,Tebessa,35.4,8.1167,Algeria,DZ,DZA,Tébessa,admin,194461
Thenia,Thenia,36.7278,3.5539,Algeria,DZ,DZA,Boumerdes,,21439
Tiaret,Tiaret,35.3667,1.3167,Algeria,DZ,DZA,Tiaret,admin,178915
Tichi,Tichi,36.6675,5.1601,Algeria,DZ,DZA,Bejaïa,,16546
Tifra,Tifra,36.6664,4.6972,Algeria,DZ,DZA,Bejaïa,,8547
Tigzirt,Tigzirt,36.8931,4.1225,Algeria,DZ,DZA,Tizi Ouzou,,11962
Timimoun,Timimoun,29.25,0.2333,Algeria,DZ,DZA,Adrar,admin,33060
Timizart,Timizart,36.8,4.2667,Algeria,DZ,DZA,Tizi Ouzou,,28996
Timoktene,Timoktene,27.0217,1.015,Algeria,DZ,DZA,Adrar,,18598
Tindouf,Tindouf,27.6753,-8.1286,Algeria,DZ,DZA,Tindouf,admin,45610
Tipasa,Tipasa,36.5942,2.443,Algeria,DZ,DZA,Tipaza,admin,25225
Tirmitine,Tirmitine,36.6618,3.9848,Algeria,DZ,DZA,Tizi Ouzou,,19027
Tissemsilt,Tissemsilt,35.6072,1.8106,Algeria,DZ,DZA,Tissemsilt,admin,75197
Tizi Gheniff,Tizi Gheniff,36.5891,3.7678,Algeria,DZ,DZA,Boumerdes,,29409
Tizi Ouzou,Tizi Ouzou,36.7169,4.0497,Algeria,DZ,DZA,Tizi Ouzou,admin,135088
Tizi Rached,Tizi Rached,36.6718,4.1918,Algeria,DZ,DZA,Tizi Ouzou,,17161
Tizi-n-Bechar,Tizi-n-Bechar,36.4311,5.36,Algeria,DZ,DZA,Bejaïa,,21086
Tizi-n-Tleta,Tizi-n-Tleta,36.5457,4.0571,Algeria,DZ,DZA,Tizi Ouzou,,15479
Tlemcen,Tlemcen,34.8828,-1.3167,Algeria,DZ,DZA,Tlemcen,admin,173531
Toudja,Toudja,36.7586,4.8933,Algeria,DZ,DZA,Bejaïa,,9827
Touggourt,Touggourt,33.1,6.0667,Algeria,DZ,DZA,Ouargla,admin,39409
Yakouren,Yakouren,36.7348,4.4386,Algeria,DZ,DZA,Tizi Ouzou,,12203
Andorra la Vella,Andorra la Vella,42.5,1.5,Andorra,AD,AND,Andorra la Vella,primary,22615
Canillo,Canillo,42.5664,1.6009,Andorra,AD,AND,Canillo,admin,4103
Encamp,Encamp,42.5361,1.5828,Andorra,AD,AND,Encamp,admin,12338
Escaldes-Engordany,Escaldes-Engordany,42.5089,1.5408,Andorra,AD,AND,Escaldes-Engordany,admin,14521
La Massana,La Massana,42.5442,1.5164,Andorra,AD,AND,La Massana,admin,10076
Ordino,Ordino,42.555,1.5331,Andorra,AD,AND,Ordino,admin,4545
Sant Julià de Lòria,Sant Julia de Loria,42.47,1.49,Andorra,AD,AND,Sant Julià de Lòria,admin,9156
Alto-Cuilo,Alto-Cuilo,-10.05,19.5167,Angola,AO,AGO,Lunda Sul,,21004
Ambriz,Ambriz,-7.85,13.1167,Angola,AO,AGO,Bengo,,17000
Baía Farta,Baia Farta,-12.6128,13.1987,Angola,AO,AGO,Benguela,,107841
Bala Cangamba,Bala Cangamba,-13.6996,19.86,Angola,AO,AGO,Moxico,,1307
Balombo,Balombo,-12.35,14.7667,Angola,AO,AGO,Benguela,,108965
Barra do Dande,Barra do Dande,-8.4728,13.3731,Angola,AO,AGO,Bengo,,222528
Belas,Belas,-9.0689,13.1608,Angola,AO,AGO,Luanda,,500000
Benguela,Benguela,-12.55,13.4167,Angola,AO,AGO,Benguela,admin,561775
Bocoio,Bocoio,-12.4667,14.1333,Angola,AO,AGO,Benguela,,164685
Bolongongo,Bolongongo,-8.4667,15.25,Angola,AO,AGO,Kwanza Norte,,13019
Cabinda,Cabinda,-5.5667,12.2,Angola,AO,AGO,Cabinda,admin,550000
Cacolo,Cacolo,-10.1365,19.2865,Angola,AO,AGO,Lunda Sul,,984
Cacongo,Cacongo,-5.2333,12.1333,Angola,AO,AGO,Cabinda,,21000
Cacuaco,Cacuaco,-8.7833,13.3667,Angola,AO,AGO,Luanda,,1279488
Cahama,Cahama,-16.2833,14.3167,Angola,AO,AGO,Cunene,,70061
Caimbambo,Caimbambo,-12.9,14.0833,Angola,AO,AGO,Benguela,,90838
Calenga,Calenga,-11.3196,16.2,Angola,AO,AGO,Bié,,531
Calulo,Calulo,-9.9996,14.9,Angola,AO,AGO,Kwanza Sul,,795
Caluquembe,Caluquembe,-13.9208,14.5347,Angola,AO,AGO,Huíla,,25933
Camabatela,Camabatela,-8.1833,15.3667,Angola,AO,AGO,Kwanza Norte,,61769
Camacupa,Camacupa,-12.0167,17.4833,Angola,AO,AGO,Bié,,19150
Cambambe,Cambambe,-9.7431,14.4914,Angola,AO,AGO,Kwanza Norte,,90766
Capenda Camulemba,Capenda Camulemba,-9.4233,18.4328,Angola,AO,AGO,Lunda Norte,,80000
Cassongue,Cassongue,-11.8333,15,Angola,AO,AGO,Kwanza Sul,,117000
Catabola,Catabola,-12.1167,17.3,Angola,AO,AGO,Bié,,126631
Catape,Catape,-13.7667,15.0833,Angola,AO,AGO,Huíla,,167820
Catchiungo,Catchiungo,-12.5667,16.2333,Angola,AO,AGO,Huambo,,120677
Catumbela,Catumbela,-12.4167,13.5333,Angola,AO,AGO,Benguela,,175805
Caxito,Caxito,-8.5785,13.6642,Angola,AO,AGO,Bengo,admin,77276
Cazombo,Cazombo,-11.9058,22.9217,Angola,AO,AGO,Moxico,,298
Chibemba,Chibemba,-15.7355,13.8905,Angola,AO,AGO,Huíla,,1502
Chibia,Chibia,-15.1833,13.7,Angola,AO,AGO,Huíla,,190670
Chicomba,Chicomba,-14.1333,14.9167,Angola,AO,AGO,Huíla,,131807
Chinguar,Chinguar,-12.55,16.3333,Angola,AO,AGO,Bié,,129370
Chipindo,Chipindo,-13.8244,15.8,Angola,AO,AGO,Huíla,,64714
Chitembo,Chitembo,-13.5167,16.7667,Angola,AO,AGO,Bié,,78156
Chongoroi,Chongoroi,-13.5667,13.95,Angola,AO,AGO,Benguela,,87278
Conda,Conda,-11.1667,14.5,Angola,AO,AGO,Kwanza Sul,,89479
Cuango,Cuango,-9.1444,18.0464,Angola,AO,AGO,Lunda Norte,,183767
Cubal,Cubal,-13.1117,14.3672,Angola,AO,AGO,Benguela,,357618
Cuchi,Cuchi,-14.6372,16.9611,Angola,AO,AGO,Kuando Kubango,,42974
Cuemba,Cuemba,-12.15,18.0833,Angola,AO,AGO,Bié,,56963
Cuito,Cuito,-12.3833,16.9333,Angola,AO,AGO,Bié,admin,114000
Cuito Cuanavale,Cuito Cuanavale,-15.1639,19.1731,Angola,AO,AGO,Kuando Kubango,,40829
Dondo,Dondo,-9.6942,14.4228,Angola,AO,AGO,Kwanza Norte,,2353
Dundo,Dundo,-7.38,20.83,Angola,AO,AGO,Lunda Norte,admin,11985
Gabela,Gabela,-10.85,14.3667,Angola,AO,AGO,Kwanza Sul,,271843
Ganda,Ganda,-13.0167,14.6333,Angola,AO,AGO,Benguela,,235486
Huambo,Huambo,-12.7667,15.7333,Angola,AO,AGO,Huambo,admin,665564
Humpata,Humpata,-15.0725,13.3678,Angola,AO,AGO,Huíla,,89144
Kuvango,Kuvango,-14.4667,16.3,Angola,AO,AGO,Huíla,,78543
Lobito,Lobito,-12.3597,13.5308,Angola,AO,AGO,Benguela,,393079
Londuimbali,Londuimbali,-12.2419,15.3133,Angola,AO,AGO,Huambo,,134254
Longonjo,Longonjo,-12.9067,15.1864,Angola,AO,AGO,Huambo,,24350
Luanda,Luanda,-8.8383,13.2344,Angola,AO,AGO,Luanda,primary,8883000
Luau,Luau,-10.7,22.2333,Angola,AO,AGO,Moxico,,90000
Lubalo,Lubalo,-9.15,19.2833,Angola,AO,AGO,Lunda Norte,,20631
Lubango,Lubango,-14.9167,13.5,Angola,AO,AGO,Huíla,admin,776249
Lucapa,Lucapa,-8.4228,20.7393,Angola,AO,AGO,Lunda Norte,,154305
Luena,Luena,-11.79,19.9,Angola,AO,AGO,Moxico,admin,21115
Malanje,Malanje,-9.5469,16.3387,Angola,AO,AGO,Malanje,admin,125856
Mavinga,Mavinga,-15.7895,20.36,Angola,AO,AGO,Kuando Kubango,,30000
Mbanza Kongo,Mbanza Kongo,-6.2667,14.25,Angola,AO,AGO,Zaire,admin,148000
Menongue,Menongue,-14.6556,17.6842,Angola,AO,AGO,Kuando Kubango,admin,320914
Moçâmedes,Mocamedes,-15.1953,12.1508,Angola,AO,AGO,Namibe,admin,255000
Muconda,Muconda,-10.6,21.3167,Angola,AO,AGO,Lunda Sul,,2324
Mungo,Mungo,-11.6667,16.1667,Angola,AO,AGO,Huambo,,113417
Namacunde,Namacunde,-17.3,15.85,Angola,AO,AGO,Cunene,,142047
Nambuangongo,Nambuangongo,-8.0483,14.3372,Angola,AO,AGO,Bengo,,60883
Ndalatando,Ndalatando,-9.3,14.9167,Angola,AO,AGO,Kwanza Norte,admin,161584
Ndjamba,Ndjamba,-14.7,16.0667,Angola,AO,AGO,Huíla,,105090
Negage,Negage,-7.7667,15.2667,Angola,AO,AGO,Uíge,,137559
Nzeto,Nzeto,-7.229,12.865,Angola,AO,AGO,Zaire,,11633
Ondjiva,Ondjiva,-17.0667,15.7333,Angola,AO,AGO,Cunene,admin,121537
Porto Alexandre,PortoAlexandre,-15.8032,11.8459,Angola,AO,AGO,Namibe,,40000
Porto Amboim,Porto Amboim,-10.7183,13.75,Angola,AO,AGO,Kwanza Sul,,137000
Quibala,Quibala,-10.7311,15.0003,Angola,AO,AGO,Kwanza Sul,,163991
Quilenda,Quilenda,-10.6333,14.3333,Angola,AO,AGO,Kwanza Sul,,97648
Quilengues,Quilengues,-14.0814,14.0764,Angola,AO,AGO,Huíla,,113825
Quipungo,Quipungo,-14.8167,14.5167,Angola,AO,AGO,Huíla,,158918
Saurimo,Saurimo,-9.6589,20.3934,Angola,AO,AGO,Lunda Sul,admin,393000
Soio,Soio,-6.1333,12.3667,Angola,AO,AGO,Zaire,,67491
Songo,Songo,-7.3496,14.85,Angola,AO,AGO,Uíge,,10579
Sumbe,Sumbe,-11.2052,13.8417,Angola,AO,AGO,Kwanza Sul,admin,279968
Talatona,Talatona,-8.9167,13.1833,Angola,AO,AGO,Luanda,,500000
Tchindjendje,Tchindjendje,-12.8167,14.9333,Angola,AO,AGO,Huambo,,30443
Tchitado,Tchitado,-17.3196,13.92,Angola,AO,AGO,Cunene,,500
Tchitato,Tchitato,-7.345,20.8198,Angola,AO,AGO,Lunda Norte,,195136
Uacu Cungo,Uacu Cungo,-11.3583,15.1194,Angola,AO,AGO,Kwanza Sul,,90000
Ucuma,Ucuma,-12.85,15.0667,Angola,AO,AGO,Huambo,,55054
Uíge,Uige,-7.6087,15.0613,Angola,AO,AGO,Uíge,admin,322531
Vila Teixeira da Silva,Vila Teixeira da Silva,-12.1958,15.8556,Angola,AO,AGO,Huambo,,294494
Xangongo,Xangongo,-16.7467,14.9747,Angola,AO,AGO,Cunene,,447
Saint John’s,Saint John's,17.1211,-61.8447,Antigua And Barbuda,AG,ATG,Saint John,primary,21926
Parham,Parham,17.1067,-61.7648,Antigua And Barbuda,AG,ATG,Saint Saint Peter Parish,,4806
St. John's,St Johns,17.1274,-61.8468,Antigua And Barbuda,AG,ATG,Saint John,primary,24000
All Saints,All Saints,17.07,-61.8,Antigua And Barbuda,AG,ATG,Saint Peter,,3000
Liberta,Liberta,17.08,-61.85,Antigua And Barbuda,AG,ATG,Saint Paul,,2500
Potters Village,Potters Village,17.12,-61.77,Antigua And Barbuda,AG,ATG,Saint John,,2700
Falmouth,Falmouth,17.005,-61.756,Antigua And Barbuda,AG,ATG,Saint Paul,,800
English Harbour,English Harbour,17,-61.783,Antigua And Barbuda,AG,ATG,Saint Paul,,1200
Five Islands,Five Islands,17.12,-61.855,Antigua And Barbuda,AG,ATG,Saint Mary,,900
Ottos,Ottos,17.11,-61.83,Antigua And Barbuda,AG,ATG,Saint Mary,,1400
Pärham,Parham,17.139,-61.76,Antigua And Barbuda,AG,ATG,Saint Peter,,1500
Swetes,Swetes,17.061,-61.764,Antigua And Barbuda,AG,ATG,Saint Paul,,2000
Abra Pampa,Abra Pampa,-22.7167,-65.7,Argentina,AR,ARG,Jujuy,minor,4480
Adrogue,Adrogue,-34.8,-58.3833,Argentina,AR,ARG,Buenos Aires,,28265
Aldo Bonzi,Aldo Bonzi,-34.7083,-58.5181,Argentina,AR,ARG,Buenos Aires,,18175
Allen,Allen,-38.9772,-67.8272,Argentina,AR,ARG,Río Negro,,22859
Alta Gracia,Alta Gracia,-31.6667,-64.4333,Argentina,AR,ARG,Córdoba,minor,48140
Alto Río Senguer,Alto Rio Senguer,-45.0419,-70.8234,Argentina,AR,ARG,Chubut,minor,1570
Añatuya,Anatuya,-28.4667,-62.8333,Argentina,AR,ARG,Santiago del Estero,minor,14133
Aristóbulo del Valle,Aristobulo del Valle,-27.0952,-54.897,Argentina,AR,ARG,Misiones,,38000
Armstrong,Armstrong,-32.7819,-61.6019,Argentina,AR,ARG,Santa Fe,,11181
Avellaneda,Avellaneda,-29.1175,-59.6583,Argentina,AR,ARG,Santa Fe,,23341
Avellaneda,Avellaneda,-34.6625,-58.3678,Argentina,AR,ARG,Buenos Aires,minor,24313
Ayacucho,Ayacucho,-37.1525,-58.4882,Argentina,AR,ARG,Buenos Aires,minor,17364
Azul,Azul,-36.7833,-59.85,Argentina,AR,ARG,Buenos Aires,minor,55728
Bahía Blanca,Bahia Blanca,-38.7167,-62.2667,Argentina,AR,ARG,Buenos Aires,minor,299101
Balcarce,Balcarce,-37.8464,-58.2556,Argentina,AR,ARG,Buenos Aires,minor,38823
Banfield,Banfield,-34.75,-58.3833,Argentina,AR,ARG,Buenos Aires,,223898
Baradero,Baradero,-33.8,-59.5167,Argentina,AR,ARG,Buenos Aires,minor,28537
Belén,Belen,-27.6496,-67.0333,Argentina,AR,ARG,Catamarca,minor,11359
Bell Ville,Bell Ville,-32.6333,-62.6833,Argentina,AR,ARG,Córdoba,minor,33835
Bella Vista,Bella Vista,-34.5333,-58.6667,Argentina,AR,ARG,Buenos Aires,,72000
Benito Juárez,Benito Juarez,-37.6833,-59.8,Argentina,AR,ARG,Buenos Aires,minor,10609
Berazategui,Berazategui,-34.7679,-58.2133,Argentina,AR,ARG,Buenos Aires,minor,180523
Bernal,Bernal,-34.7,-58.2833,Argentina,AR,ARG,Buenos Aires,,109914
Bialet Massé,Bialet Masse,-31.3214,-64.4694,Argentina,AR,ARG,Córdoba,,5425
Bragado,Bragado,-35.1167,-60.5,Argentina,AR,ARG,Buenos Aires,minor,33222
Brandsen,Brandsen,-35.1667,-58.2167,Argentina,AR,ARG,Buenos Aires,minor,19877
Buenos Aires,Buenos Aires,-34.5997,-58.3819,Argentina,AR,ARG,"Buenos Aires, Ciudad Autónoma de",primary,16216000
Burzaco,Burzaco,-34.8167,-58.3667,Argentina,AR,ARG,Buenos Aires,,98859
Cafayate,Cafayate,-26.07,-65.98,Argentina,AR,ARG,Salta,minor,11785
Caleta Olivia,Caleta Olivia,-46.4333,-67.5333,Argentina,AR,ARG,Santa Cruz,,51733
Campana,Campana,-34.1667,-58.9167,Argentina,AR,ARG,Buenos Aires,minor,86860
Cañada de Gómez,Canada de Gomez,-32.8167,-61.4,Argentina,AR,ARG,Santa Fe,minor,29205
Capilla del Monte,Capilla del Monte,-30.85,-64.5167,Argentina,AR,ARG,Córdoba,,11181
Capitán Bermúdez,Capitan Bermudez,-32.8167,-60.7167,Argentina,AR,ARG,Santa Fe,,29218
Carcarañá,Carcarana,-32.85,-61.15,Argentina,AR,ARG,Santa Fe,,16277
Carhué,Carhue,-37.1667,-62.7333,Argentina,AR,ARG,Buenos Aires,minor,7190
Carmen de Areco,Carmen de Areco,-34.3833,-59.8167,Argentina,AR,ARG,Buenos Aires,minor,14692
Caseros,Caseros,-34.6167,-58.5333,Argentina,AR,ARG,Buenos Aires,minor,95785
Casilda,Casilda,-33.0442,-61.1681,Argentina,AR,ARG,Santa Fe,minor,35058
Castelar,Castelar,-34.65,-58.65,Argentina,AR,ARG,Buenos Aires,,107786
Castelli,Castelli,-25.95,-60.6167,Argentina,AR,ARG,Chaco,minor,9421
Catamarca,Catamarca,-28.4686,-65.7792,Argentina,AR,ARG,Catamarca,admin,159139
Catriel,Catriel,-37.8778,-67.7917,Argentina,AR,ARG,Río Negro,,17584
Centenario,Centenario,-38.8167,-68.1333,Argentina,AR,ARG,Neuquén,,34421
Ceres,Ceres,-29.8833,-61.95,Argentina,AR,ARG,Santa Fe,,14499
Cerrillos,Cerrillos,-24.9,-65.4833,Argentina,AR,ARG,Salta,minor,11498
Chacabuco,Chacabuco,-34.65,-60.49,Argentina,AR,ARG,Buenos Aires,minor,34587
Chajarí,Chajari,-30.7667,-57.9833,Argentina,AR,ARG,Entre Ríos,,45848
Chamical,Chamical,-30.3592,-66.3133,Argentina,AR,ARG,La Rioja,minor,8989
Charata,Charata,-27.2144,-61.1881,Argentina,AR,ARG,Chaco,minor,18297
Chascomús,Chascomus,-35.575,-58.0089,Argentina,AR,ARG,Buenos Aires,minor,21054
Chepes,Chepes,-31.35,-66.6,Argentina,AR,ARG,La Rioja,minor,6020
Chilecito,Chilecito,-29.1667,-67.5,Argentina,AR,ARG,La Rioja,minor,33724
Chivilcoy,Chivilcoy,-34.9,-60.0167,Argentina,AR,ARG,Buenos Aires,minor,54514
Choele Choel,Choele Choel,-39.2858,-65.6542,Argentina,AR,ARG,Río Negro,minor,10146
Chos Malal,Chos Malal,-37.3833,-70.2667,Argentina,AR,ARG,Neuquén,minor,13092
Chumbicha,Chumbicha,-28.8666,-66.2333,Argentina,AR,ARG,Catamarca,minor,2572
Cinco Saltos,Cinco Saltos,-38.8167,-68.0667,Argentina,AR,ARG,Río Negro,,22790
Ciudad General Belgrano,Ciudad General Belgrano,-34.7261,-58.5289,Argentina,AR,ARG,Buenos Aires,,92957
Colón,Colon,-32.2241,-58.1419,Argentina,AR,ARG,Entre Ríos,minor,24835
Comallo,Comallo,-41.0333,-70.2667,Argentina,AR,ARG,Río Negro,,741
Comandante Fontana,Comandante Fontana,-25.3333,-59.6833,Argentina,AR,ARG,Formosa,minor,4277
Comandante Luis Piedra Buena,Comandante Luis Piedra Buena,-49.983,-68.91,Argentina,AR,ARG,Santa Cruz,,6405
Comodoro Rivadavia,Comodoro Rivadavia,-45.8667,-67.5,Argentina,AR,ARG,Chubut,minor,730266
Concepción del Uruguay,Concepcion del Uruguay,-32.4833,-58.2333,Argentina,AR,ARG,Entre Ríos,minor,72528
Concordia,Concordia,-31.3922,-58.0169,Argentina,AR,ARG,Entre Ríos,minor,149450
Córdoba,Cordoba,-31.4167,-64.1833,Argentina,AR,ARG,Córdoba,admin,1329604
Coronda,Coronda,-31.9667,-60.9167,Argentina,AR,ARG,Santa Fe,minor,18115
Coronel Dorrego,Coronel Dorrego,-38.7,-61.2667,Argentina,AR,ARG,Buenos Aires,minor,11510
Coronel Suárez,Coronel Suarez,-37.4667,-61.9333,Argentina,AR,ARG,Buenos Aires,minor,23621
Corral de Bustos,Corral de Bustos,-33.2833,-62.2,Argentina,AR,ARG,Córdoba,,10407
Corrientes,Corrientes,-27.4833,-58.8167,Argentina,AR,ARG,Corrientes,admin,352646
Cruz del Eje,Cruz del Eje,-30.7333,-64.8,Argentina,AR,ARG,Córdoba,minor,52172
Cutral-Có,Cutral-Co,-38.9333,-69.2333,Argentina,AR,ARG,Neuquén,,35465
Darregueira,Darregueira,-37.6996,-63.1666,Argentina,AR,ARG,Buenos Aires,,3412
Deán Funes,Dean Funes,-30.4333,-64.35,Argentina,AR,ARG,Córdoba,minor,21518
Dock Sur,Dock Sur,-34.6417,-58.3478,Argentina,AR,ARG,Buenos Aires,,35897
Dolores,Dolores,-36.3132,-57.6792,Argentina,AR,ARG,Buenos Aires,minor,25940
Don Bosco,Don Bosco,-34.7,-58.2833,Argentina,AR,ARG,Buenos Aires,,20876
El Calafate,El Calafate,-50.3395,-72.2649,Argentina,AR,ARG,Santa Cruz,minor,21132
El Maitén,El Maiten,-42.05,-71.1667,Argentina,AR,ARG,"Buenos Aires, Ciudad Autónoma de",,4011
El Talar de Pacheco,El Talar de Pacheco,-34.4719,-58.655,Argentina,AR,ARG,Buenos Aires,,50426
Eldorado,Eldorado,-26.4,-54.6333,Argentina,AR,ARG,Misiones,minor,17365
Embalse,Embalse,-32.1833,-64.4167,Argentina,AR,ARG,Córdoba,,9107
Esperanza,Esperanza,-31.4489,-60.9317,Argentina,AR,ARG,Santa Fe,minor,43300
Esquel,Esquel,-42.9,-71.3167,Argentina,AR,ARG,"Buenos Aires, Ciudad Autónoma de",minor,36687
Esteban Echeverría,Esteban Echeverria,-34.8167,-58.4667,Argentina,AR,ARG,Buenos Aires,,109644
Ezpeleta,Ezpeleta,-34.7517,-58.2344,Argentina,AR,ARG,Buenos Aires,,79557
Federación,Federacion,-30.9833,-57.9167,Argentina,AR,ARG,Entre Ríos,minor,16658
Firmat,Firmat,-33.45,-61.4833,Argentina,AR,ARG,Santa Fe,,25757
Florencio Varela,Florencio Varela,-34.8167,-58.3833,Argentina,AR,ARG,Buenos Aires,minor,146704
Florencio Varela,Florencio Varela,-34.8167,-58.2833,Argentina,AR,ARG,Buenos Aires,,426005
Formosa,Formosa,-26.1847,-58.1758,Argentina,AR,ARG,Formosa,admin,222226
Fray Luis A. Beltrán,Fray Luis A. Beltran,-32.7833,-60.7333,Argentina,AR,ARG,Santa Fe,,15176
Frías,Frias,-28.6496,-65.15,Argentina,AR,ARG,Santiago del Estero,minor,13594
Frontera,Frontera,-31.4278,-62.0619,Argentina,AR,ARG,Córdoba,,10520
Gastre,Gastre,-42.2667,-69.2167,Argentina,AR,ARG,Chubut,minor,602
General Conesa,General Conesa,-40.1,-64.4333,Argentina,AR,ARG,Río Negro,minor,5484
General Deheza,General Deheza,-32.7564,-63.7889,Argentina,AR,ARG,Córdoba,,18000
General Fernández Oro,General Fernandez Oro,-38.95,-67.9167,Argentina,AR,ARG,Río Negro,,6772
General Juan Madariaga,General Juan Madariaga,-37.0167,-57.1333,Argentina,AR,ARG,Buenos Aires,minor,18089
General Levalle,General Levalle,-34.0167,-63.9167,Argentina,AR,ARG,Córdoba,,5697
General Martín Miguel de Güemes,General Martin Miguel de Guemes,-24.6667,-65.05,Argentina,AR,ARG,Salta,minor,19828
General Pico,General Pico,-35.6587,-63.7577,Argentina,AR,ARG,La Pampa,minor,57029
General Roca,General Roca,-39.0333,-67.5833,Argentina,AR,ARG,Río Negro,minor,81534
Gobernador Gálvez,Gobernador Galvez,-33.0251,-60.6337,Argentina,AR,ARG,Santa Fe,,80769
Gobernador Gregores,Gobernador Gregores,-48.7509,-70.2485,Argentina,AR,ARG,Santa Cruz,minor,4497
Godoy Cruz,Godoy Cruz,-32.9167,-68.8333,Argentina,AR,ARG,Mendoza,minor,191299
González Catán,Gonzalez Catan,-34.7708,-58.6464,Argentina,AR,ARG,Buenos Aires,,238067
Goya,Goya,-29.1333,-59.25,Argentina,AR,ARG,Corrientes,minor,72304
Granadero Baigorria,Granadero Baigorria,-32.85,-60.7,Argentina,AR,ARG,Santa Fe,,36994
Gualeguay,Gualeguay,-33.15,-59.3167,Argentina,AR,ARG,Entre Ríos,minor,43009
Gualeguaychú,Gualeguaychu,-33.0078,-58.5111,Argentina,AR,ARG,Entre Ríos,minor,109461
Haedo,Haedo,-34.65,-58.6,Argentina,AR,ARG,Buenos Aires,,37745
Helvecia,Helvecia,-31.1,-60.0833,Argentina,AR,ARG,Santa Fe,minor,7994
Humahuaca,Humahuaca,-23.2054,-65.3505,Argentina,AR,ARG,Jujuy,minor,11369
Ingeniero Guillermo N. Juárez,Ingeniero Guillermo N. Juarez,-23.9,-61.85,Argentina,AR,ARG,Formosa,minor,6453
Ingeniero Jacobacci,Ingeniero Jacobacci,-41.3,-69.5833,Argentina,AR,ARG,Río Negro,,6261
Ingeniero Luis A. Huergo,Ingeniero Luis A. Huergo,-39.0833,-67.2333,Argentina,AR,ARG,Río Negro,,6227
Isidro Casanova,Isidro Casanova,-34.7,-58.5833,Argentina,AR,ARG,Buenos Aires,,190696
Ituzaingó,Ituzaingo,-34.6582,-58.6672,Argentina,AR,ARG,Buenos Aires,minor,135275
Jesús María,Jesus Maria,-30.9817,-64.0942,Argentina,AR,ARG,Córdoba,minor,31602
Jesús Nazareno,Jesus Nazareno,-32.9111,-68.79,Argentina,AR,ARG,Mendoza,,6875
Joaquín V. González,Joaquin V. Gonzalez,-25.1171,-64.1247,Argentina,AR,ARG,Salta,minor,13376
José C. Paz,Jose C. Paz,-34.5167,-58.7667,Argentina,AR,ARG,Buenos Aires,minor,216637
José María Ezeiza,Jose Maria Ezeiza,-34.8333,-58.5167,Argentina,AR,ARG,Buenos Aires,minor,160219
José Mármol,Jose Marmol,-34.7833,-58.3667,Argentina,AR,ARG,Buenos Aires,,41109
Junín,Junin,-34.5939,-60.9464,Argentina,AR,ARG,Buenos Aires,minor,85007
Junín de los Andes,Junin de los Andes,-39.9506,-71.0694,Argentina,AR,ARG,Neuquén,minor,12621
Justiniano Posse,Justiniano Posse,-32.8833,-62.6667,Argentina,AR,ARG,Córdoba,,8499
La Banda,La Banda,-27.7333,-64.25,Argentina,AR,ARG,Santiago del Estero,minor,106441
La Calera,La Calera,-31.3439,-64.3353,Argentina,AR,ARG,Córdoba,,32227
La Carlota,La Carlota,-33.4179,-63.2935,Argentina,AR,ARG,Córdoba,minor,12537
La Falda,La Falda,-31.0833,-64.5,Argentina,AR,ARG,Córdoba,,16335
La Paz,La Paz,-33.4661,-67.55,Argentina,AR,ARG,Mendoza,minor,4400
La Plata,La Plata,-34.9333,-57.95,Argentina,AR,ARG,Buenos Aires,admin,193144
La Quiaca,La Quiaca,-22.1056,-65.6,Argentina,AR,ARG,Jujuy,minor,13761
La Reja,La Reja,-34.6394,-58.8283,Argentina,AR,ARG,Buenos Aires,,47839
La Rioja,La Rioja,-29.4131,-66.8558,Argentina,AR,ARG,La Rioja,admin,180995
Laboulaye,Laboulaye,-34.1267,-63.3911,Argentina,AR,ARG,Córdoba,minor,20534
Laguna Larga,Laguna Larga,-31.7764,-63.8011,Argentina,AR,ARG,Córdoba,,7437
Laguna Paiva,Laguna Paiva,-31.3039,-60.6589,Argentina,AR,ARG,Santa Fe,,12334
Lamarque,Lamarque,-39.4236,-65.7,Argentina,AR,ARG,Río Negro,,7686
Lanús,Lanus,-34.7,-58.4,Argentina,AR,ARG,Buenos Aires,minor,459263
Laprida,Laprida,-37.5333,-60.8167,Argentina,AR,ARG,Buenos Aires,minor,8178
Las Heras,Las Heras,-46.55,-68.95,Argentina,AR,ARG,Santa Cruz,,17821
Las Heras,Las Heras,-32.825,-68.8017,Argentina,AR,ARG,Mendoza,minor,66663
Las Lajas,Las Lajas,-38.5208,-70.3667,Argentina,AR,ARG,Neuquén,minor,1218
Las Lomitas,Las Lomitas,-24.7072,-60.5944,Argentina,AR,ARG,Formosa,,7683
Las Parejas,Las Parejas,-32.6833,-61.5333,Argentina,AR,ARG,Santa Fe,,12375
Leones,Leones,-32.6617,-62.2967,Argentina,AR,ARG,Córdoba,,10391
Libertad,Libertad,-34.6833,-58.6833,Argentina,AR,ARG,Buenos Aires,,100324
Libertador General San Martín,Libertador General San Martin,-23.8,-64.7833,Argentina,AR,ARG,Jujuy,minor,49267
Lincoln,Lincoln,-34.85,-61.5167,Argentina,AR,ARG,Buenos Aires,minor,24798
Lobos,Lobos,-35.1864,-59.0961,Argentina,AR,ARG,Buenos Aires,minor,18278
Lomas de Zamora,Lomas de Zamora,-34.7667,-58.4,Argentina,AR,ARG,Buenos Aires,minor,112580
Lomas del Mirador,Lomas del Mirador,-34.6667,-58.5297,Argentina,AR,ARG,Buenos Aires,,71479
Longchamps,Longchamps,-34.8596,-58.387,Argentina,AR,ARG,Buenos Aires,,47622
Los Blancos,Los Blancos,-23.5996,-62.6,Argentina,AR,ARG,Salta,,1145
Los Menucos,Los Menucos,-40.8424,-68.0896,Argentina,AR,ARG,Río Negro,,5187
Los Polvorines,Los Polvorines,-34.5,-58.7,Argentina,AR,ARG,Buenos Aires,minor,60867
Luján,Lujan,-34.5703,-59.105,Argentina,AR,ARG,Buenos Aires,minor,81749
Macachín,Macachin,-37.1377,-63.662,Argentina,AR,ARG,La Pampa,minor,5465
Malargüe,Malargue,-35.4745,-69.5853,Argentina,AR,ARG,Mendoza,minor,11847
Malvinas Argentinas,Malvinas Argentinas,-31.3697,-64.0531,Argentina,AR,ARG,Córdoba,,12187
Mar de Ajó,Mar de Ajo,-36.7162,-56.6766,Argentina,AR,ARG,Buenos Aires,,13610
Mar del Plata,Mar del Plata,-38,-57.55,Argentina,AR,ARG,Buenos Aires,minor,593337
Marcos Juárez,Marcos Juarez,-32.7,-62.1,Argentina,AR,ARG,Córdoba,minor,27004
Mendoza,Mendoza,-32.8833,-68.8333,Argentina,AR,ARG,Mendoza,admin,114822
Mercedes,Mercedes,-29.1796,-58.08,Argentina,AR,ARG,Corrientes,minor,30649
Mercedes,Mercedes,-34.65,-59.4333,Argentina,AR,ARG,Buenos Aires,minor,52949
Merlo,Merlo,-34.6653,-58.7275,Argentina,AR,ARG,Buenos Aires,minor,244168
Mina Clavero,Mina Clavero,-31.7239,-65.005,Argentina,AR,ARG,Córdoba,,8487
Monte Chingolo,Monte Chingolo,-34.7333,-58.35,Argentina,AR,ARG,Buenos Aires,,85060
Monte Cristo,Monte Cristo,-31.3431,-63.9444,Argentina,AR,ARG,Córdoba,,9254
Monte Quemado,Monte Quemado,-25.8072,-62.8278,Argentina,AR,ARG,Santiago del Estero,minor,11387
Morón,Moron,-34.65,-58.6167,Argentina,AR,ARG,Buenos Aires,minor,99066
Munro,Munro,-34.5333,-58.5167,Argentina,AR,ARG,Buenos Aires,,35844
Necochea,Necochea,-38.55,-58.7333,Argentina,AR,ARG,Buenos Aires,minor,80478
Neuquén,Neuquen,-38.9573,-68.0455,Argentina,AR,ARG,Neuquén,admin,231198
Nueve de Julio,Nueve de Julio,-35.45,-60.8833,Argentina,AR,ARG,Buenos Aires,minor,36494
Oberá,Obera,-27.4833,-55.1333,Argentina,AR,ARG,Misiones,minor,66112
Olavarría,Olavarria,-36.9,-60.3333,Argentina,AR,ARG,Buenos Aires,minor,86320
Oliva,Oliva,-32.0416,-63.5698,Argentina,AR,ARG,Córdoba,minor,11672
Oncativo,Oncativo,-31.9134,-63.6818,Argentina,AR,ARG,Córdoba,,13180
Pampa del Infierno,Pampa del Infierno,-26.5167,-61.1667,Argentina,AR,ARG,Chaco,minor,2921
Paraná,Parana,-31.7444,-60.5175,Argentina,AR,ARG,Entre Ríos,admin,247863
Pedro Luro,Pedro Luro,-39.5,-62.6833,Argentina,AR,ARG,Buenos Aires,,9494
Pergamino,Pergamino,-33.8836,-60.5669,Argentina,AR,ARG,Buenos Aires,minor,87652
Perito Moreno,Perito Moreno,-46.59,-70.9297,Argentina,AR,ARG,Santa Cruz,minor,4617
Perugorría,Perugorria,-29.3408,-58.6083,Argentina,AR,ARG,Corrientes,,5685
Pico Truncado,Pico Truncado,-46.8,-67.9667,Argentina,AR,ARG,Santa Cruz,,20889
Pilar,Pilar,-34.4588,-58.9142,Argentina,AR,ARG,Buenos Aires,minor,81120
Pinamar,Pinamar,-37.1,-56.85,Argentina,AR,ARG,Buenos Aires,minor,45000
Plaza Huincul,Plaza Huincul,-38.9338,-69.1987,Argentina,AR,ARG,Neuquén,,13172
Plottier,Plottier,-38.95,-68.2333,Argentina,AR,ARG,Neuquén,,32390
Posadas,Posadas,-27.3667,-55.8969,Argentina,AR,ARG,Misiones,admin,275988
Presidencia Roque Sáenz Peña,Presidencia Roque Saenz Pena,-26.7833,-60.45,Argentina,AR,ARG,Chaco,minor,81879
Puerto Deseado,Puerto Deseado,-47.75,-65.9167,Argentina,AR,ARG,Santa Cruz,minor,14183
Puerto Madryn,Puerto Madryn,-42.773,-65.0366,Argentina,AR,ARG,Chubut,minor,115353
Puerto San Martín,Puerto San Martin,-32.7167,-60.7333,Argentina,AR,ARG,Santa Fe,,13243
Punta Alta,Punta Alta,-38.88,-62.075,Argentina,AR,ARG,Buenos Aires,minor,58315
Quilmes,Quilmes,-34.7167,-58.2667,Argentina,AR,ARG,Buenos Aires,minor,230810
Rada Tilly,Rada Tilly,-45.9257,-67.5526,Argentina,AR,ARG,Chubut,,9098
Rafael Calzada,Rafael Calzada,-34.7833,-58.3667,Argentina,AR,ARG,Buenos Aires,,56419
Rafael Castillo,Rafael Castillo,-34.7167,-58.6167,Argentina,AR,ARG,Buenos Aires,,147965
Rafaela,Rafaela,-31.2667,-61.4833,Argentina,AR,ARG,Santa Fe,minor,92945
Ramos Mejía,Ramos Mejia,-34.65,-58.5667,Argentina,AR,ARG,Buenos Aires,,120346
Rawson,Rawson,-43.3,-65.1,Argentina,AR,ARG,Chubut,admin,24616
Reconquista,Reconquista,-29.1443,-59.6438,Argentina,AR,ARG,Santa Fe,minor,70549
Remedios de Escalada,Remedios de Escalada,-34.7167,-58.4,Argentina,AR,ARG,Buenos Aires,,81465
Resistencia,Resistencia,-27.4514,-58.9867,Argentina,AR,ARG,Chaco,admin,291720
Rinconada,Rinconada,-22.4403,-66.1672,Argentina,AR,ARG,Jujuy,minor,6692
Río Colorado,Rio Colorado,-38.9908,-64.0958,Argentina,AR,ARG,La Pampa,,11733
Río Cuarto,Rio Cuarto,-33.123,-64.3478,Argentina,AR,ARG,Córdoba,minor,158298
Río Gallegos,Rio Gallegos,-51.6333,-69.2333,Argentina,AR,ARG,Santa Cruz,admin,95796
Río Grande,Rio Grande,-53.7914,-67.699,Argentina,AR,ARG,"Tierra del Fuego, Antártida e Islas del Atlántico Sur",minor,31095
Río Mayo,Rio Mayo,-45.687,-70.26,Argentina,AR,ARG,Chubut,,2791
Río Primero,Rio Primero,-31.3333,-63.6167,Argentina,AR,ARG,Córdoba,,7044
Río Segundo,Rio Segundo,-31.6526,-63.9099,Argentina,AR,ARG,Córdoba,,19713
Río Tercero,Rio Tercero,-32.1768,-64.113,Argentina,AR,ARG,Córdoba,,46421
Rodeo,Rodeo,-30.2156,-69.14,Argentina,AR,ARG,San Juan,minor,701
Rosario,Rosario,-32.9575,-60.6394,Argentina,AR,ARG,Santa Fe,minor,1193605
Rosario del Tala,Rosario del Tala,-32.3008,-59.1389,Argentina,AR,ARG,Entre Ríos,minor,12801
Rufino,Rufino,-34.2683,-62.7125,Argentina,AR,ARG,Santa Fe,,18727
Salta,Salta,-24.7883,-65.4106,Argentina,AR,ARG,Salta,admin,535303
San Antonio de los Cobres,San Antonio de los Cobres,-24.2256,-66.3192,Argentina,AR,ARG,Salta,minor,5482
San Antonio Oeste,San Antonio Oeste,-40.7333,-64.95,Argentina,AR,ARG,Río Negro,minor,16265
San Carlos de Bariloche,San Carlos de Bariloche,-41.15,-71.3,Argentina,AR,ARG,Río Negro,minor,112887
San Cristóbal,San Cristobal,-30.3105,-61.2372,Argentina,AR,ARG,Santa Fe,minor,14389
San Francisco,San Francisco,-31.4356,-62.0714,Argentina,AR,ARG,Córdoba,minor,62000
San Francisco Solano,San Francisco Solano,-34.7667,-58.3167,Argentina,AR,ARG,Buenos Aires,,91322
San Isidro,San Isidro,-34.4667,-58.5167,Argentina,AR,ARG,Buenos Aires,minor,43595
San Javier,San Javier,-30.5833,-59.95,Argentina,AR,ARG,Santa Fe,minor,13604
San Juan,San Juan,-31.5375,-68.5364,Argentina,AR,ARG,San Juan,admin,471389
San Julián,San Julian,-49.307,-67.7298,Argentina,AR,ARG,Santa Cruz,minor,7894
San Justo,San Justo,-30.7833,-60.5833,Argentina,AR,ARG,Santa Fe,minor,21624
San Justo,San Justo,-34.6833,-58.55,Argentina,AR,ARG,Buenos Aires,minor,136604
San Lorenzo,San Lorenzo,-28.12,-58.77,Argentina,AR,ARG,Corrientes,,47626
San Luis,San Luis,-33.2994,-66.3392,Argentina,AR,ARG,San Luis,admin,169947
San Martín,San Martin,-33.0806,-68.4706,Argentina,AR,ARG,Mendoza,minor,117399
San Martín de los Andes,San Martin de los Andes,-40.1667,-71.35,Argentina,AR,ARG,Neuquén,minor,27956
San Miguel,San Miguel,-34.5333,-58.7167,Argentina,AR,ARG,Buenos Aires,,157532
San Miguel de Tucumán,San Miguel de Tucuman,-26.8167,-65.2167,Argentina,AR,ARG,Tucumán,admin,605767
San Nicolás de los Arroyos,San Nicolas de los Arroyos,-33.3333,-60.2167,Argentina,AR,ARG,Buenos Aires,minor,160000
San Pedro,San Pedro,-33.6794,-59.6669,Argentina,AR,ARG,Buenos Aires,minor,47452
San Pedro,San Pedro,-24.2196,-64.87,Argentina,AR,ARG,Jujuy,minor,58430
San Rafael,San Rafael,-34.6175,-68.3356,Argentina,AR,ARG,Mendoza,minor,107997
San Ramón de la Nueva Orán,San Ramon de la Nueva Oran,-23.1361,-64.3222,Argentina,AR,ARG,Salta,minor,74059
San Salvador,San Salvador,-31.6167,-58.5,Argentina,AR,ARG,Entre Ríos,minor,12733
San Salvador de Jujuy,San Salvador de Jujuy,-24.1856,-65.2994,Argentina,AR,ARG,Jujuy,admin,321789
Santa Elena,Santa Elena,-30.95,-59.8,Argentina,AR,ARG,Entre Ríos,,17791
Santa Fe,Santa Fe,-31.6333,-60.7,Argentina,AR,ARG,Santa Fe,admin,405683
Santa María,Santa Maria,-26.6833,-66.0333,Argentina,AR,ARG,Catamarca,minor,17030
Santa María,Santa Maria,-31.2611,-64.4639,Argentina,AR,ARG,Córdoba,,9526
Santa Rosa,Santa Rosa,-36.6203,-64.2906,Argentina,AR,ARG,La Pampa,admin,103860
Santa Rosa,Santa Rosa,-28.2631,-58.1189,Argentina,AR,ARG,Corrientes,,7143
Santa Rosa de Calamuchita,Santa Rosa de Calamuchita,-32.0667,-64.5333,Argentina,AR,ARG,Córdoba,,12830
Santa Rosa de Río Primero,Santa Rosa de Rio Primero,-31.15,-63.3833,Argentina,AR,ARG,Córdoba,minor,7761
Santiago del Estero,Santiago del Estero,-27.7844,-64.2669,Argentina,AR,ARG,Santiago del Estero,admin,252192
Santo Tomé,Santo Tome,-31.6667,-60.7667,Argentina,AR,ARG,Santa Fe,,65684
Sarandí,Sarandi,-34.6833,-58.3333,Argentina,AR,ARG,Buenos Aires,,60752
Sarmiento,Sarmiento,-45.6,-69.0833,Argentina,AR,ARG,Chubut,minor,10858
Senillosa,Senillosa,-39.01,-68.43,Argentina,AR,ARG,Neuquén,,7542
Sierra Colorada,Sierra Colorada,-40.5875,-67.7583,Argentina,AR,ARG,Río Negro,minor,1542
Sierra Grande,Sierra Grande,-41.6061,-65.3558,Argentina,AR,ARG,Río Negro,,7404
Sunchales,Sunchales,-30.9442,-61.5614,Argentina,AR,ARG,Santa Fe,,20537
Susques,Susques,-23.4006,-66.3672,Argentina,AR,ARG,Jujuy,minor,1093
Tandil,Tandil,-37.3167,-59.1333,Argentina,AR,ARG,Buenos Aires,minor,116917
Tapiales,Tapiales,-34.7058,-58.5047,Argentina,AR,ARG,Buenos Aires,,23586
Tartagal,Tartagal,-22.5,-63.8333,Argentina,AR,ARG,Salta,minor,60819
Telsen,Telsen,-42.3833,-66.95,Argentina,AR,ARG,Chubut,minor,544
Temperley,Temperley,-34.7667,-58.3833,Argentina,AR,ARG,Buenos Aires,,121451
Tinogasta,Tinogasta,-28.0667,-67.5667,Argentina,AR,ARG,Catamarca,minor,587
Trancas,Trancas,-26.2308,-65.2781,Argentina,AR,ARG,Tucumán,minor,1599
Trelew,Trelew,-43.2533,-65.3094,Argentina,AR,ARG,Chubut,,93442
Tres Arroyos,Tres Arroyos,-38.3667,-60.2667,Argentina,AR,ARG,Buenos Aires,minor,47136
Trevelín,Trevelin,-43.0833,-71.4667,Argentina,AR,ARG,Chubut,,6353
Tunuyán,Tunuyan,-33.5667,-69.0167,Argentina,AR,ARG,Mendoza,minor,22834
Unquillo,Unquillo,-31.2333,-64.3167,Argentina,AR,ARG,Córdoba,,18483
Ushuaia,Ushuaia,-54.8072,-68.3044,Argentina,AR,ARG,"Tierra del Fuego, Antártida e Islas del Atlántico Sur",admin,56956
Uspallata,Uspallata,-32.5931,-69.346,Argentina,AR,ARG,Mendoza,,2390
Veinticinco de Mayo,Veinticinco de Mayo,-35.4167,-60.1667,Argentina,AR,ARG,Buenos Aires,minor,23408
Veinticinco de Mayo,Veinticinco de Mayo,-37.771,-67.7173,Argentina,AR,ARG,La Pampa,minor,17430
Veintiocho de Noviembre,Veintiocho de Noviembre,-51.584,-72.2143,Argentina,AR,ARG,Santa Cruz,,6145
Venado Tuerto,Venado Tuerto,-33.75,-61.9667,Argentina,AR,ARG,Santa Fe,,76432
Vera,Vera,-29.4667,-60.2167,Argentina,AR,ARG,Santa Fe,minor,19185
Vicente López,Vicente Lopez,-34.5333,-58.475,Argentina,AR,ARG,Buenos Aires,,22419
Victoria,Victoria,-32.6167,-60.1667,Argentina,AR,ARG,Entre Ríos,minor,30623
Victorica,Victorica,-36.2167,-65.434,Argentina,AR,ARG,La Pampa,minor,4458
Viedma,Viedma,-40.8,-63,Argentina,AR,ARG,Río Negro,admin,59122
Villa Adelina,Villa Adelina,-34.5175,-58.5475,Argentina,AR,ARG,Buenos Aires,,35307
Villa Allende,Villa Allende,-31.2944,-64.2953,Argentina,AR,ARG,Córdoba,,28374
Villa Alsina,Villa Alsina,-34.6667,-58.4167,Argentina,AR,ARG,Buenos Aires,,41155
Villa Ángela,Villa Angela,-27.5833,-60.7167,Argentina,AR,ARG,Chaco,minor,30051
Villa Carlos Paz,Villa Carlos Paz,-31.4,-64.5167,Argentina,AR,ARG,Córdoba,,62423
Villa Celina,Villa Celina,-34.7006,-58.4825,Argentina,AR,ARG,"Buenos Aires, Ciudad Autónoma de",,78699
Villa Constitución,Villa Constitucion,-33.2333,-60.3333,Argentina,AR,ARG,Santa Fe,minor,47374
Villa Cura Brochero,Villa Cura Brochero,-31.71,-65.02,Argentina,AR,ARG,Córdoba,minor,6351
Villa del Rosario,Villa del Rosario,-31.5833,-63.5333,Argentina,AR,ARG,Córdoba,minor,15394
Villa Domínico,Villa Dominico,-34.6917,-58.3333,Argentina,AR,ARG,Buenos Aires,,62315
Villa General Belgrano,Villa General Belgrano,-31.9667,-64.5667,Argentina,AR,ARG,Córdoba,,7795
Villa Gesell,Villa Gesell,-37.2556,-56.9681,Argentina,AR,ARG,Buenos Aires,minor,29593
Villa Huidobro,Villa Huidobro,-34.8333,-64.5833,Argentina,AR,ARG,Córdoba,minor,5658
Villa La Angostura,Villa La Angostura,-40.7616,-71.6448,Argentina,AR,ARG,Neuquén,minor,11063
Villa Luzuriaga,Villa Luzuriaga,-34.6667,-58.5833,Argentina,AR,ARG,Buenos Aires,,94403
Villa María,Villa Maria,-32.4103,-63.2314,Argentina,AR,ARG,Córdoba,minor,79356
Villa Mercedes,Villa Mercedes,-33.6667,-65.4667,Argentina,AR,ARG,San Luis,minor,111391
Villa Nueva,Villa Nueva,-32.4331,-63.2475,Argentina,AR,ARG,Córdoba,,18818
Villa Paranacito,Villa Paranacito,-33.7,-58.6833,Argentina,AR,ARG,Entre Ríos,minor,15321
Villa Regina,Villa Regina,-39.1,-67.0667,Argentina,AR,ARG,Río Negro,,30028
Villa Rumipal,Villa Rumipal,-32.1879,-64.4803,Argentina,AR,ARG,Córdoba,,1269
Villa Sarmiento,Villa Sarmiento,-34.6333,-58.5667,Argentina,AR,ARG,Buenos Aires,,17481
Villaguay,Villaguay,-31.85,-59.0167,Argentina,AR,ARG,Entre Ríos,minor,49445
Villalonga,Villalonga,-39.8829,-62.5833,Argentina,AR,ARG,Buenos Aires,,2838
Wilde,Wilde,-34.7,-58.3167,Argentina,AR,ARG,Buenos Aires,,65881
Yacimiento Río Turbio,Yacimiento Rio Turbio,-51.5361,-72.3361,Argentina,AR,ARG,Santa Cruz,,8814
Zapala,Zapala,-38.9028,-70.065,Argentina,AR,ARG,Neuquén,minor,32097
Zárate,Zarate,-34.0833,-59.0333,Argentina,AR,ARG,Buenos Aires,minor,98522
Abovyan,Abovyan,40.2739,44.6256,Armenia,AM,ARM,Kotayk’,,44400
Akhuryan,Akhuryan,40.7814,43.8964,Armenia,AM,ARM,Shirak,,9668
Alaverdi,Alaverdi,41.1333,44.65,Armenia,AM,ARM,Lorri,,13000
Aparan,Aparan,40.5891,44.3572,Armenia,AM,ARM,Aragatsotn,,6400
Aragatsavan,Aragatsavan,40.3331,43.6581,Armenia,AM,ARM,Aragatsotn,,5785
Ararat,Ararat,39.8303,44.7025,Armenia,AM,ARM,Ararat,,20800
Armavir,Armavir,40.15,44.04,Armenia,AM,ARM,Armavir,admin,38635
Artashat,Artashat,39.9539,44.5506,Armenia,AM,ARM,Ararat,admin,21300
Artik,Artik,40.6172,43.9758,Armenia,AM,ARM,Shirak,,19543
Ashtarak,Ashtarak,40.2975,44.3617,Armenia,AM,ARM,Aragatsotn,admin,21600
Ayntap,Ayntap,40.0986,44.4681,Armenia,AM,ARM,Ararat,,9550
Berd,Berd,40.8808,45.3917,Armenia,AM,ARM,Tavush,,9864
Byureghavan,Byureghavan,40.3147,44.5936,Armenia,AM,ARM,Kotayk’,,8500
Chambarak,Chambarak,40.5953,45.3475,Armenia,AM,ARM,Geghark’unik’,,5850
Charentsavan,Charentsavan,40.4097,44.6431,Armenia,AM,ARM,Kotayk’,,25039
Dilijan,Dilijan,40.7408,44.8631,Armenia,AM,ARM,Tavush,,16600
Ejmiatsin,Ejmiatsin,40.1728,44.2925,Armenia,AM,ARM,Armavir,,57500
Garrni,Garrni,40.1194,44.7231,Armenia,AM,ARM,Kotayk’,,7215
Gavarr,Gavarr,40.3589,45.1267,Armenia,AM,ARM,Geghark’unik’,admin,20765
Goris,Goris,39.5078,46.3386,Armenia,AM,ARM,Syunik’,,20591
Gyumri,Gyumri,40.7894,43.8475,Armenia,AM,ARM,Shirak,admin,121976
Hrazdan,Hrazdan,40.5,44.7667,Armenia,AM,ARM,Kotayk’,admin,52808
Ijevan,Ijevan,40.8792,45.1472,Armenia,AM,ARM,Tavush,admin,20509
Jermuk,Jermuk,39.8417,45.6722,Armenia,AM,ARM,Vayots’ Dzor,,8013
Jrvezh,Jrvezh,40.1856,44.5869,Armenia,AM,ARM,Yerevan,,6848
Kajaran,Kajaran,39.1594,46.1222,Armenia,AM,ARM,Syunik’,,7163
Kapan,Kapan,39.2011,46.415,Armenia,AM,ARM,Syunik’,admin,43190
Karmir Gyukh,Karmir Gyukh,40.3306,45.1839,Armenia,AM,ARM,Geghark’unik’,,6291
Lichk,Lichk,40.1592,45.2347,Armenia,AM,ARM,Geghark’unik’,,5467
Maralik,Maralik,40.5722,43.8669,Armenia,AM,ARM,Shirak,,5500
Martuni,Martuni,40.14,45.3064,Armenia,AM,ARM,Geghark’unik’,,11987
Masis,Masis,40.0672,44.4361,Armenia,AM,ARM,Ararat,,21376
Metsamor,Metsamor,40.1428,44.1164,Armenia,AM,ARM,Armavir,,9870
Nerk’in Getashen,Nerk'in Getashen,40.1467,45.2642,Armenia,AM,ARM,Geghark’unik’,,8553
Nor Hachn,Nor Hachn,40.3019,44.5831,Armenia,AM,ARM,Kotayk’,,10198
Noratus,Noratus,40.38,45.18,Armenia,AM,ARM,Geghark’unik’,,6732
Noyemberyan,Noyemberyan,41.1725,44.9936,Armenia,AM,ARM,Tavush,,5310
Odzun,Odzun,41.0539,44.6114,Armenia,AM,ARM,Lorri,,5311
Oshakan,Oshakan,40.2633,44.3147,Armenia,AM,ARM,Aragatsotn,,5962
Sardarapat,Sardarapat,40.1361,44.0139,Armenia,AM,ARM,Armavir,,6275
Sevan,Sevan,40.555,44.9536,Armenia,AM,ARM,Geghark’unik’,,23200
Sisian,Sisian,39.5208,46.0322,Armenia,AM,ARM,Syunik’,,14894
Spitak,Spitak,40.8372,44.2675,Armenia,AM,ARM,Lorri,,15000
Stepanavan,Stepanavan,41.0096,44.3841,Armenia,AM,ARM,Lorri,,23782
Tashir,Tashir,41.1244,44.2819,Armenia,AM,ARM,Lorri,,8700
Tsovinar,Tsovinar,40.16,45.4664,Armenia,AM,ARM,Geghark’unik’,,5115
Vanadzor,Vanadzor,40.8128,44.4883,Armenia,AM,ARM,Lorri,admin,90525
Vardenik,Vardenik,40.1331,45.4367,Armenia,AM,ARM,Geghark’unik’,,9669
Vardenis,Vardenis,40.1806,45.72,Armenia,AM,ARM,Geghark’unik’,,12363
Vedi,Vedi,39.9106,44.7278,Armenia,AM,ARM,Ararat,,13600
Verin Getashen,Verin Getashen,40.1328,45.2486,Armenia,AM,ARM,Geghark’unik’,,5010
Yeghegnadzor,Yeghegnadzor,39.7611,45.3333,Armenia,AM,ARM,Vayots’ Dzor,admin,7633
Yeghvard,Yeghvard,40.3217,44.4814,Armenia,AM,ARM,Kotayk’,,10656
Yeranos,Yeranos,40.2042,45.1883,Armenia,AM,ARM,Geghark’unik’,,6119
Yerevan,Yerevan,40.1814,44.5144,Armenia,AM,ARM,Yerevan,primary,1075800
Adelaide,Adelaide,-34.9275,138.6,Australia,AU,AUS,South Australia,admin,1295714
Adelaide River,Adelaide River,-13.2381,131.1061,Australia,AU,AUS,Northern Territory,,353
Albany,Albany,-35.0228,117.8814,Australia,AU,AUS,Western Australia,,29373
Albury,Albury,-36.0806,146.9158,Australia,AU,AUS,New South Wales,,4804
Alice Springs,Alice Springs,-23.7,133.8667,Australia,AU,AUS,Northern Territory,,23726
Alstonville,Alstonville,-28.8317,153.4344,Australia,AU,AUS,New South Wales,,5739
Andamooka,Andamooka,-30.447,137.166,Australia,AU,AUS,South Australia,,316
Andergrove,Andergrove,-21.0931,149.186,Australia,AU,AUS,Queensland,,9419
Ararat,Ararat,-37.2833,142.9167,Australia,AU,AUS,Victoria,,8297
Armidale,Armidale,-30.5,151.65,Australia,AU,AUS,New South Wales,,23352
Atherton,Atherton,-17.2658,145.478,Australia,AU,AUS,Queensland,,7331
Australind,Australind,-33.28,115.726,Australia,AU,AUS,Western Australia,,14539
Ayr,Ayr,-19.5744,147.4066,Australia,AU,AUS,Queensland,,8738
Bacchus Marsh,Bacchus Marsh,-37.675,144.4389,Australia,AU,AUS,Victoria,,6394
Bairnsdale,Bairnsdale,-37.8333,147.6167,Australia,AU,AUS,Victoria,,7580
Ballarat,Ballarat,-37.5608,143.8475,Australia,AU,AUS,Victoria,,98543
Ballina,Ballina,-28.8333,153.5333,Australia,AU,AUS,New South Wales,,8655
Bannockburn,Bannockburn,-38.05,144.1667,Australia,AU,AUS,Victoria,,5283
Banora Point,Banora Point,-28.2225,153.5386,Australia,AU,AUS,New South Wales,,16167
Barcaldine,Barcaldine,-23.5555,145.2888,Australia,AU,AUS,Queensland,,1422
Bargara,Bargara,-24.8205,152.4625,Australia,AU,AUS,Queensland,,7485
Barwon Heads,Barwon Heads,-38.25,144.5167,Australia,AU,AUS,Victoria,,14165
Batemans Bay,Batemans Bay,-35.7081,150.1744,Australia,AU,AUS,New South Wales,,1530
Bathurst,Bathurst,-33.42,149.5778,Australia,AU,AUS,New South Wales,,34303
Beaudesert,Beaudesert,-27.988,152.9958,Australia,AU,AUS,Queensland,,6395
Bedourie,Bedourie,-24.35,139.4667,Australia,AU,AUS,Queensland,,122
Beerwah,Beerwah,-26.8583,152.9588,Australia,AU,AUS,Queensland,,6769
Benalla,Benalla,-36.5519,145.9817,Australia,AU,AUS,Victoria,,10330
Bendigo,Bendigo,-36.75,144.2667,Australia,AU,AUS,Victoria,,95587
Berri,Berri,-34.2833,140.6,Australia,AU,AUS,South Australia,,4088
Bicheno,Bicheno,-41.8667,148.2833,Australia,AU,AUS,Tasmania,,943
Biloela,Biloela,-24.4002,150.5133,Australia,AU,AUS,Queensland,,5758
Birdsville,Birdsville,-25.8989,139.352,Australia,AU,AUS,Queensland,,140
Blaxland,Blaxland,-33.75,150.6167,Australia,AU,AUS,New South Wales,,7451
Bli Bli,Bli Bli,-26.618,153.037,Australia,AU,AUS,Queensland,,7801
Bomaderry,Bomaderry,-34.848,150.605,Australia,AU,AUS,New South Wales,,6661
Bongaree,Bongaree,-27.0813,153.1636,Australia,AU,AUS,Queensland,,13649
Bordertown,Bordertown,-36.3118,140.7702,Australia,AU,AUS,South Australia,,2953
Boulia,Boulia,-22.9,139.9,Australia,AU,AUS,Queensland,,301
Bourke,Bourke,-30.1,145.9333,Australia,AU,AUS,New South Wales,,1909
Bowen,Bowen,-20.0102,148.2416,Australia,AU,AUS,Queensland,,10377
Bowral,Bowral,-34.4792,150.4181,Australia,AU,AUS,New South Wales,,10335
Brisbane,Brisbane,-27.4678,153.0281,Australia,AU,AUS,Queensland,admin,2360241
Broken Hill,Broken Hill,-31.95,141.4667,Australia,AU,AUS,New South Wales,,17814
Broome,Broome,-17.9619,122.2361,Australia,AU,AUS,Western Australia,,4042
Bullsbrook,Bullsbrook,-31.663,116.03,Australia,AU,AUS,Western Australia,,5448
Bunbury,Bunbury,-33.3272,115.6369,Australia,AU,AUS,Western Australia,,71090
Bundaberg,Bundaberg,-24.8661,152.3494,Australia,AU,AUS,Queensland,,70540
Burketown,Burketown,-17.7167,139.5667,Australia,AU,AUS,Queensland,,238
Burnie,Burnie,-41.0636,145.8753,Australia,AU,AUS,Tasmania,,27174
Burpengary,Burpengary,-27.1442,153,Australia,AU,AUS,Queensland,,6433
Busselton,Busselton,-33.6478,115.3458,Australia,AU,AUS,Western Australia,,25329
Byron Bay,Byron Bay,-28.6483,153.6178,Australia,AU,AUS,New South Wales,,5521
Caboolture,Caboolture,-27.0667,152.967,Australia,AU,AUS,Queensland,,26433
Cairns,Cairns,-16.92,145.78,Australia,AU,AUS,Queensland,,146778
Calliope,Calliope,-24.0061,151.1988,Australia,AU,AUS,Queensland,,5101
Caloundra,Caloundra,-26.7986,153.1289,Australia,AU,AUS,Queensland,,41293
Camooweal,Camooweal,-19.9167,138.117,Australia,AU,AUS,Queensland,,208
Campbelltown,Campbelltown,-34.0733,150.8261,Australia,AU,AUS,New South Wales,,12566
Canberra,Canberra,-35.2931,149.1269,Australia,AU,AUS,Australian Capital Territory,primary,381488
Cannonvale,Cannonvale,-20.2787,148.6994,Australia,AU,AUS,Queensland,,5716
Carnarvon,Carnarvon,-24.8672,113.6611,Australia,AU,AUS,Western Australia,,208
Casino,Casino,-28.8667,153.05,Australia,AU,AUS,New South Wales,,10914
Castlemaine,Castlemaine,-37.0636,144.2172,Australia,AU,AUS,Victoria,,6757
Ceduna,Ceduna,-32.1167,133.6667,Australia,AU,AUS,South Australia,,2157
Central Coast,Central Coast,-33.3,151.2,Australia,AU,AUS,New South Wales,,297713
Cessnock,Cessnock,-32.8342,151.3555,Australia,AU,AUS,New South Wales,,15177
Charleville,Charleville,-26.4016,146.2383,Australia,AU,AUS,Queensland,,3335
Charters Towers,Charters Towers,-20.0765,146.2614,Australia,AU,AUS,Queensland,,8126
Chinchilla,Chinchilla,-26.7383,150.6283,Australia,AU,AUS,Queensland,,6612
Clare,Clare,-33.8333,138.6,Australia,AU,AUS,South Australia,,3327
Clifton Springs,Clifton Springs,-38.15,144.5667,Australia,AU,AUS,Victoria,,7519
Cloncurry,Cloncurry,-20.7047,140.5052,Australia,AU,AUS,Queensland,,2719
Cobram,Cobram,-35.9667,145.65,Australia,AU,AUS,Victoria,,6014
Coffs Harbour,Coffs Harbour,-30.3022,153.1189,Australia,AU,AUS,New South Wales,,25752
Colac,Colac,-38.3403,143.5847,Australia,AU,AUS,Victoria,,9048
Collie,Collie,-33.363,116.156,Australia,AU,AUS,Western Australia,,7587
Cooma,Cooma,-36.2317,149.1178,Australia,AU,AUS,New South Wales,,6681
Cooranbong,Cooranbong,-33.074,151.451,Australia,AU,AUS,New South Wales,,5449
Cootamundra,Cootamundra,-34.6483,148.0344,Australia,AU,AUS,New South Wales,,6782
Corinda,Corinda,-27.4833,153.1,Australia,AU,AUS,Queensland,,11019
Corowa,Corowa,-35.9942,146.3844,Australia,AU,AUS,New South Wales,,5482
Cowell,Cowell,-33.6833,136.9167,Australia,AU,AUS,South Australia,,990
Cowra,Cowra,-33.8183,148.6578,Australia,AU,AUS,New South Wales,,10063
Cranbourne,Cranbourne,-38.0996,145.2834,Australia,AU,AUS,Victoria,,460491
Currumbin,Currumbin,-28.158,153.469,Australia,AU,AUS,Queensland,,9121
Dalby,Dalby,-27.1813,151.2661,Australia,AU,AUS,Queensland,,12719
Dandenong,Dandenong,-37.981,145.215,Australia,AU,AUS,Victoria,,29906
Darley,Darley,-37.6547,144.437,Australia,AU,AUS,Victoria,,8372
Darwin,Darwin,-12.4381,130.8411,Australia,AU,AUS,Northern Territory,admin,136828
Deniliquin,Deniliquin,-35.5331,144.9667,Australia,AU,AUS,New South Wales,,7862
Devonport,Devonport,-41.18,146.3503,Australia,AU,AUS,Tasmania,,23046
Dromana,Dromana,-38.338,144.965,Australia,AU,AUS,Victoria,,5803
Drouin,Drouin,-38.1333,145.85,Australia,AU,AUS,Victoria,,12349
Dubbo,Dubbo,-32.2569,148.6011,Australia,AU,AUS,New South Wales,,38943
Dunsborough,Dunsborough,-33.6167,115.1,Australia,AU,AUS,Western Australia,,5320
East Ballina,East Ballina,-28.8594,153.5872,Australia,AU,AUS,New South Wales,,5571
Echuca,Echuca,-36.1333,144.75,Australia,AU,AUS,Victoria,,14043
Eidsvold,Eidsvold,-25.3667,151.1333,Australia,AU,AUS,Queensland,,574
Emerald,Emerald,-23.5208,148.1619,Australia,AU,AUS,Queensland,,14356
Emerald,Emerald,-37.9331,145.437,Australia,AU,AUS,Victoria,,5778
Emu Plains,Emu Plains,-33.7483,150.6678,Australia,AU,AUS,New South Wales,,8421
Esperance,Esperance,-33.8611,121.8919,Australia,AU,AUS,Western Australia,,2144
Exmouth,Exmouth,-21.9331,114.1281,Australia,AU,AUS,Western Australia,,2514
Forbes,Forbes,-33.3817,148.0011,Australia,AU,AUS,New South Wales,,8432
Forster,Forster,-32.1806,152.5117,Australia,AU,AUS,New South Wales,,13740
Frankston,Frankston,-38.158,145.135,Australia,AU,AUS,Victoria,,36097
Fremantle,Fremantle,-32.0569,115.7439,Australia,AU,AUS,Western Australia,,7459
Gatton,Gatton,-27.5611,152.2755,Australia,AU,AUS,Queensland,,7101
Gawler,Gawler,-34.5981,138.745,Australia,AU,AUS,South Australia,,650
Geelong,Geelong,-38.15,144.35,Australia,AU,AUS,Victoria,,184182
Georgetown,Georgetown,-18.3,143.55,Australia,AU,AUS,Queensland,,348
Geraldton,Geraldton,-28.7744,114.6089,Australia,AU,AUS,Western Australia,,31982
Gingin,Gingin,-31.34,115.91,Australia,AU,AUS,Western Australia,,852
Gisborne,Gisborne,-37.49,144.5889,Australia,AU,AUS,Victoria,,8999
Gladstone,Gladstone,-23.8427,151.2555,Australia,AU,AUS,Queensland,,33418
Glass House Mountains,Glass House Mountains,-26.9,152.9167,Australia,AU,AUS,Queensland,,5065
Glen Innes,Glen Innes,-29.7317,151.7511,Australia,AU,AUS,New South Wales,,6155
Glenbrook,Glenbrook,-33.765,150.6267,Australia,AU,AUS,New South Wales,,5051
Gold Coast,Gold Coast,-28.0167,153.4,Australia,AU,AUS,Queensland,,638090
Goondiwindi,Goondiwindi,-28.5461,150.3097,Australia,AU,AUS,Queensland,,6355
Goonellabah,Goonellabah,-28.8167,153.3167,Australia,AU,AUS,New South Wales,,12900
Gordonvale,Gordonvale,-17.0936,145.7866,Australia,AU,AUS,Queensland,,6671
Goulburn,Goulburn,-34.7547,149.6186,Australia,AU,AUS,New South Wales,,22419
Gracemere,Gracemere,-23.4391,150.4558,Australia,AU,AUS,Queensland,,11315
Grafton,Grafton,-29.6833,152.9333,Australia,AU,AUS,New South Wales,,10408
Griffith,Griffith,-34.29,146.04,Australia,AU,AUS,New South Wales,,18196
Gunnedah,Gunnedah,-30.9667,150.25,Australia,AU,AUS,New South Wales,,9726
Gympie,Gympie,-26.19,152.6655,Australia,AU,AUS,Queensland,,10803
Halls Creek,Halls Creek,-18.23,127.67,Australia,AU,AUS,Western Australia,,1499
Hamilton,Hamilton,-37.7333,142.0167,Australia,AU,AUS,Victoria,,9974
Healesville,Healesville,-37.6561,145.5139,Australia,AU,AUS,Victoria,,7461
Helensburgh,Helensburgh,-34.1889,150.9811,Australia,AU,AUS,New South Wales,,6383
Hervey Bay,Hervey Bay,-25.29,152.84,Australia,AU,AUS,Queensland,,52073
Highfields,Highfields,-27.4633,151.9458,Australia,AU,AUS,Queensland,,9474
Hobart,Hobart,-42.8806,147.325,Australia,AU,AUS,Tasmania,admin,222356
Horsham,Horsham,-36.7167,142.2,Australia,AU,AUS,Victoria,,14543
Howard Springs,Howard Springs,-12.4922,131.053,Australia,AU,AUS,Northern Territory,,5132
Hughenden,Hughenden,-20.8438,144.1986,Australia,AU,AUS,Queensland,,1136
Ingham,Ingham,-18.65,146.1667,Australia,AU,AUS,Queensland,,4426
Innisfail,Innisfail,-17.5238,146.0311,Australia,AU,AUS,Queensland,,1145
Inverell,Inverell,-29.7667,151.1167,Australia,AU,AUS,New South Wales,,11660
Inverloch,Inverloch,-38.6334,145.7278,Australia,AU,AUS,Victoria,,5437
Ipswich,Ipswich,-27.6167,152.7667,Australia,AU,AUS,Queensland,,163000
Irymple,Irymple,-34.2333,142.1667,Australia,AU,AUS,Victoria,,5325
Ivanhoe,Ivanhoe,-32.8983,144.3,Australia,AU,AUS,New South Wales,,327
Jimboomba,Jimboomba,-27.83,153.0313,Australia,AU,AUS,Queensland,,13201
Kalbarri,Kalbarri,-27.71,114.16,Australia,AU,AUS,Western Australia,,1557
Kalgoorlie,Kalgoorlie,-30.7489,121.4658,Australia,AU,AUS,Western Australia,,30841
Kangaroo Flat,Kangaroo Flat,-36.7833,144.233,Australia,AU,AUS,Victoria,,10394
Karratha,Karratha,-20.7364,116.8464,Australia,AU,AUS,Western Australia,,15828
Karumba,Karumba,-17.4838,140.8397,Australia,AU,AUS,Queensland,,531
Katanning,Katanning,-33.6908,117.5553,Australia,AU,AUS,Western Australia,,3687
Katherine,Katherine,-14.4667,132.2667,Australia,AU,AUS,Northern Territory,,1488
Katoomba,Katoomba,-33.715,150.312,Australia,AU,AUS,New South Wales,,7964
Kelso,Kelso,-33.4186,149.6056,Australia,AU,AUS,New South Wales,,8968
Kempsey,Kempsey,-31.0833,152.8333,Australia,AU,AUS,New South Wales,,474
Kiama,Kiama,-34.6708,150.8542,Australia,AU,AUS,New South Wales,,6881
Kiama Downs,Kiama Downs,-34.6317,150.8511,Australia,AU,AUS,New South Wales,,5004
Kilmore,Kilmore,-37.2833,144.95,Australia,AU,AUS,Victoria,,7958
Kimba,Kimba,-33.1333,136.417,Australia,AU,AUS,South Australia,,629
Kingaroy,Kingaroy,-26.5408,151.8394,Australia,AU,AUS,Queensland,,10020
Kingoonya,Kingoonya,-30.9,135.3,Australia,AU,AUS,South Australia,,13
Kingscliff,Kingscliff,-28.2617,153.5769,Australia,AU,AUS,New South Wales,,7464
Kingston,Kingston,-42.9769,147.3083,Australia,AU,AUS,Tasmania,,10409
Kingston South East,Kingston South East,-36.8167,139.85,Australia,AU,AUS,South Australia,,1393
Kununurra,Kununurra,-15.7736,128.7386,Australia,AU,AUS,Western Australia,,5308
Kurri Kurri,Kurri Kurri,-32.8167,151.4833,Australia,AU,AUS,New South Wales,,6044
Kwinana,Kwinana,-32.2394,115.7702,Australia,AU,AUS,Western Australia,,20086
Kyabram,Kyabram,-36.3167,145.05,Australia,AU,AUS,Victoria,,7331
Kyneton,Kyneton,-37.247,144.455,Australia,AU,AUS,Victoria,,6951
Lakes Entrance,Lakes Entrance,-37.8667,147.9833,Australia,AU,AUS,Victoria,,6071
Lara,Lara,-38.0167,144.4167,Australia,AU,AUS,Victoria,,16355
Launceston,Launceston,-41.4419,147.145,Australia,AU,AUS,Tasmania,,106153
Laverton,Laverton,-28.628,122.403,Australia,AU,AUS,Western Australia,,871
Leeton,Leeton,-34.5667,146.4,Australia,AU,AUS,New South Wales,,8623
Lennox Head,Lennox Head,-28.7983,153.5844,Australia,AU,AUS,New South Wales,,6407
Leongatha,Leongatha,-38.4833,145.95,Australia,AU,AUS,Victoria,,5654
Leonora,Leonora,-28.88,121.33,Australia,AU,AUS,Western Australia,,781
Leopold,Leopold,-38.1892,144.4644,Australia,AU,AUS,Victoria,,12814
Lismore,Lismore,-28.8167,153.2833,Australia,AU,AUS,New South Wales,,3579
Lithgow,Lithgow,-33.4833,150.15,Australia,AU,AUS,New South Wales,,5201
Longreach,Longreach,-23.4422,144.2491,Australia,AU,AUS,Queensland,,2970
Lysterfield,Lysterfield,-37.93,145.301,Australia,AU,AUS,Victoria,,6663
Mackay,Mackay,-21.1411,149.1858,Australia,AU,AUS,Queensland,,3659
Maffra,Maffra,-37.95,146.983,Australia,AU,AUS,Victoria,,5280
Maitland,Maitland,-32.7167,151.55,Australia,AU,AUS,New South Wales,,1885
Mandurah,Mandurah,-32.5289,115.7231,Australia,AU,AUS,Western Australia,,7837
Manjimup,Manjimup,-34.2411,116.1464,Australia,AU,AUS,Western Australia,,4349
Mareeba,Mareeba,-16.9833,145.4167,Australia,AU,AUS,Queensland,,11079
Margaret River,Margaret River,-33.955,115.075,Australia,AU,AUS,Western Australia,,7654
Maryborough,Maryborough,-25.5375,152.7019,Australia,AU,AUS,Queensland,,15406
Maryborough,Maryborough,-37.05,143.735,Australia,AU,AUS,Victoria,,7921
McMinns Lagoon,McMinns Lagoon,-12.5329,131.05,Australia,AU,AUS,Northern Territory,,5025
Meekatharra,Meekatharra,-26.5931,118.4911,Australia,AU,AUS,Western Australia,,708
Melbourne,Melbourne,-37.8136,144.9631,Australia,AU,AUS,Victoria,admin,4529500
Melton,Melton,-37.6833,144.5833,Australia,AU,AUS,Victoria,,54455
Meningie,Meningie,-35.6883,139.338,Australia,AU,AUS,South Australia,,1118
Merimbula,Merimbula,-36.8983,149.9011,Australia,AU,AUS,New South Wales,,3544
Merredin,Merredin,-31.482,118.279,Australia,AU,AUS,Western Australia,,2850
Merrimac,Merrimac,-28.05,153.3667,Australia,AU,AUS,New South Wales,,7071
Mildura,Mildura,-34.1889,142.1583,Australia,AU,AUS,Victoria,,32738
Millicent,Millicent,-37.5967,140.3524,Australia,AU,AUS,South Australia,,5109
Mittagong,Mittagong,-34.45,150.45,Australia,AU,AUS,New South Wales,,5767
Moe,Moe,-38.1722,146.2678,Australia,AU,AUS,Victoria,,8778
Mooroopna,Mooroopna,-36.3833,145.35,Australia,AU,AUS,Victoria,,7942
Moranbah,Moranbah,-22.0016,148.0533,Australia,AU,AUS,Queensland,,8735
Morawa,Morawa,-29.2111,116.009,Australia,AU,AUS,Western Australia,,532
Moree,Moree,-29.465,149.8344,Australia,AU,AUS,New South Wales,,9311
Morwell,Morwell,-38.2333,146.4,Australia,AU,AUS,Victoria,,13771
Moss Vale,Moss Vale,-34.55,150.3833,Australia,AU,AUS,New South Wales,,8579
Mount Barker,Mount Barker,-35.0667,138.85,Australia,AU,AUS,South Australia,,13842
Mount Barker,Mount Barker,-34.63,117.6669,Australia,AU,AUS,Western Australia,,2741
Mount Cotton,Mount Cotton,-27.6188,153.221,Australia,AU,AUS,Queensland,,6835
Mount Eliza,Mount Eliza,-38.189,145.092,Australia,AU,AUS,Victoria,,17888
Mount Evelyn,Mount Evelyn,-37.783,145.385,Australia,AU,AUS,Victoria,,9702
Mount Gambier,Mount Gambier,-37.8294,140.7828,Australia,AU,AUS,South Australia,,25512
Mount Isa,Mount Isa,-20.7333,139.5,Australia,AU,AUS,Queensland,,118
Mount Magnet,Mount Magnet,-28.06,117.846,Australia,AU,AUS,Western Australia,,470
Mudgee,Mudgee,-32.6125,149.5872,Australia,AU,AUS,New South Wales,,9830
Murray Bridge,Murray Bridge,-35.117,139.267,Australia,AU,AUS,South Australia,,14560
Murwillumbah,Murwillumbah,-28.3333,153.3833,Australia,AU,AUS,New South Wales,,7032
Muswellbrook,Muswellbrook,-32.2654,150.8885,Australia,AU,AUS,New South Wales,,12075
Nairne,Nairne,-35.0333,138.9167,Australia,AU,AUS,South Australia,,5042
Nambour,Nambour,-26.6269,152.9591,Australia,AU,AUS,Queensland,,11187
Nambucca Heads,Nambucca Heads,-30.6414,152.9906,Australia,AU,AUS,New South Wales,,6327
Naracoorte,Naracoorte,-36.955,140.7429,Australia,AU,AUS,South Australia,,5960
Narangba,Narangba,-27.2015,152.9655,Australia,AU,AUS,Queensland,,18573
Narrabri,Narrabri,-30.3317,149.7678,Australia,AU,AUS,New South Wales,,7606
Narre Warren North,Narre Warren North,-37.982,145.314,Australia,AU,AUS,Victoria,,7674
Narrogin,Narrogin,-32.936,117.178,Australia,AU,AUS,Western Australia,,4274
Nelson Bay,Nelson Bay,-32.715,152.1511,Australia,AU,AUS,New South Wales,,11060
Nerang,Nerang,-27.9956,153.322,Australia,AU,AUS,Queensland,,16864
New Norfolk,New Norfolk,-42.7828,147.0594,Australia,AU,AUS,Tasmania,,5432
Newcastle,Newcastle,-32.9167,151.75,Australia,AU,AUS,New South Wales,,152984
Newman,Newman,-23.3539,119.7319,Australia,AU,AUS,Western Australia,,7238
Norseman,Norseman,-32.1961,121.778,Australia,AU,AUS,Western Australia,,581
North Mackay,North Mackay,-21.1216,149.1783,Australia,AU,AUS,Queensland,,5933
North Tamborine,North Tamborine,-27.9694,153.1992,Australia,AU,AUS,Queensland,,7349
Northam,Northam,-31.6531,116.6661,Australia,AU,AUS,Western Australia,,6548
Nowra,Nowra,-34.8808,150.6075,Australia,AU,AUS,New South Wales,,9193
Nuriootpa,Nuriootpa,-34.4667,138.9833,Australia,AU,AUS,South Australia,,6314
Oatlands,Oatlands,-42.3,147.3706,Australia,AU,AUS,Tasmania,,683
Ocean Shores,Ocean Shores,-28.5092,153.5375,Australia,AU,AUS,New South Wales,,5137
Onslow,Onslow,-21.6333,115.1167,Australia,AU,AUS,Western Australia,,857
Orange,Orange,-33.2833,149.1,Australia,AU,AUS,New South Wales,,38097
Ouyen,Ouyen,-35.0667,142.317,Australia,AU,AUS,Victoria,,1191
Pakenham,Pakenham,-38.0712,145.4878,Australia,AU,AUS,Victoria,,46421
Palmwoods,Palmwoods,-26.6883,152.9597,Australia,AU,AUS,Queensland,,5676
Pannawonica,Pannawonica,-21.635,116.336,Australia,AU,AUS,Western Australia,,695
Parkes,Parkes,-33.133,148.176,Australia,AU,AUS,New South Wales,,11408
Penola,Penola,-37.3786,140.8362,Australia,AU,AUS,South Australia,,1592
Penrith,Penrith,-33.7511,150.6942,Australia,AU,AUS,New South Wales,,13295
Perth,Perth,-31.9522,115.8589,Australia,AU,AUS,Western Australia,admin,2039200
Peterborough,Peterborough,-32.9667,138.8333,Australia,AU,AUS,South Australia,,1497
Pine Creek,Pine Creek,-13.8231,131.833,Australia,AU,AUS,Northern Territory,,328
Point Vernon,Point Vernon,-25.2538,152.8177,Australia,AU,AUS,Queensland,,5699
Port Augusta,Port Augusta,-32.4925,137.7658,Australia,AU,AUS,South Australia,,6562
Port Denison,Port Denison,-29.2833,114.9167,Australia,AU,AUS,Western Australia,,1410
Port Douglas,Port Douglas,-16.4834,145.4652,Australia,AU,AUS,Queensland,,3504
Port Hedland,Port Hedland,-20.31,118.6011,Australia,AU,AUS,Western Australia,,4180
Port Lincoln,Port Lincoln,-34.7322,135.8586,Australia,AU,AUS,South Australia,,14120
Port Macquarie,Port Macquarie,-31.4333,152.9,Australia,AU,AUS,New South Wales,,44830
Port Pirie,Port Pirie,-33.1858,138.0169,Australia,AU,AUS,South Australia,,195
Portland,Portland,-38.3333,141.6,Australia,AU,AUS,Victoria,,9712
Pottsville,Pottsville,-28.3869,153.5608,Australia,AU,AUS,New South Wales,,6704
Proserpine,Proserpine,-20.4017,148.5814,Australia,AU,AUS,Queensland,,3562
Quakers Hill,Quakers Hill,-33.7344,150.8789,Australia,AU,AUS,New South Wales,,27080
Queanbeyan,Queanbeyan,-35.3533,149.2342,Australia,AU,AUS,New South Wales,,6237
Queenstown,Queenstown,-42.0667,145.55,Australia,AU,AUS,Tasmania,,1790
Quilpie,Quilpie,-26.6161,144.2675,Australia,AU,AUS,Queensland,,564
Ravensthorpe,Ravensthorpe,-33.5831,120.049,Australia,AU,AUS,Western Australia,,498
Raymond Terrace,Raymond Terrace,-32.7615,151.7441,Australia,AU,AUS,New South Wales,,12820
Red Cliffs,Red Cliffs,-34.3075,142.1881,Australia,AU,AUS,Victoria,,5060
Redlynch,Redlynch,-16.8833,145.7,Australia,AU,AUS,Queensland,,8645
Richmond,Richmond,-20.7305,143.1425,Australia,AU,AUS,Queensland,,648
Richmond,Richmond,-33.5983,150.7511,Australia,AU,AUS,New South Wales,,5482
Rochedale,Rochedale,-27.6,153.133,Australia,AU,AUS,Queensland,,15317
Rockhampton,Rockhampton,-23.375,150.5117,Australia,AU,AUS,Queensland,,1953
Roebourne,Roebourne,-20.7667,117.15,Australia,AU,AUS,Western Australia,,981
Roma,Roma,-26.5733,148.7869,Australia,AU,AUS,Queensland,,6848
Rutherford,Rutherford,-32.715,151.5317,Australia,AU,AUS,New South Wales,,11884
Rye,Rye,-38.377,144.838,Australia,AU,AUS,Victoria,,8416
Sale,Sale,-38.1,147.0667,Australia,AU,AUS,Victoria,,13673
Sanctuary Point,Sanctuary Point,-35.1036,150.6267,Australia,AU,AUS,New South Wales,,7225
Sarina,Sarina,-21.4225,149.2175,Australia,AU,AUS,Queensland,,5522
Scone,Scone,-32.0483,150.8678,Australia,AU,AUS,New South Wales,,5624
Scottsdale,Scottsdale,-41.1667,147.5167,Australia,AU,AUS,Tasmania,,2373
Seymour,Seymour,-37.03,145.13,Australia,AU,AUS,Victoria,,6327
Shepparton,Shepparton,-36.3833,145.4,Australia,AU,AUS,Victoria,,31197
Singleton,Singleton,-32.5667,151.1697,Australia,AU,AUS,New South Wales,,5000
Smithfield Heights,Smithfield Heights,-16.8314,145.691,Australia,AU,AUS,Queensland,,5303
Smithton,Smithton,-40.844,145.12,Australia,AU,AUS,Tasmania,,3881
Somerville,Somerville,-38.226,145.177,Australia,AU,AUS,Victoria,,11336
South Grafton,South Grafton,-29.715,152.9344,Australia,AU,AUS,New South Wales,,6068
Southern Cross,Southern Cross,-31.25,119.35,Australia,AU,AUS,Western Australia,,680
Southport,Southport,-27.9667,153.4,Australia,AU,AUS,Queensland,,31908
Springwood,Springwood,-33.7036,150.55,Australia,AU,AUS,New South Wales,,8475
Stawell,Stawell,-37.05,142.7667,Australia,AU,AUS,Victoria,,5736
Strathalbyn,Strathalbyn,-35.2667,138.9,Australia,AU,AUS,South Australia,,6504
Streaky Bay,Streaky Bay,-32.8,134.2167,Australia,AU,AUS,South Australia,,1378
Sunbury,Sunbury,-37.5811,144.7139,Australia,AU,AUS,Victoria,,36084
Swan Hill,Swan Hill,-35.3333,143.55,Australia,AU,AUS,Victoria,,9864
Sydney,Sydney,-33.865,151.2094,Australia,AU,AUS,New South Wales,admin,4840600
Tahmoor,Tahmoor,-34.2233,150.5928,Australia,AU,AUS,New South Wales,,5067
Tamworth,Tamworth,-31.0833,150.9167,Australia,AU,AUS,New South Wales,,180
Tannum Sands,Tannum Sands,-23.9474,151.3675,Australia,AU,AUS,Queensland,,5145
Taree,Taree,-31.9,152.45,Australia,AU,AUS,New South Wales,,16197
Thargomindah,Thargomindah,-28,143.8167,Australia,AU,AUS,Queensland,,270
Theodore,Theodore,-24.95,150.0833,Australia,AU,AUS,Queensland,,438
Three Springs,Three Springs,-29.5333,115.717,Australia,AU,AUS,Western Australia,,381
Tom Price,Tom Price,-22.6939,117.795,Australia,AU,AUS,Western Australia,,3005
Toowoomba,Toowoomba,-27.5667,151.95,Australia,AU,AUS,Queensland,,135631
Torquay,Torquay,-38.3333,144.3167,Australia,AU,AUS,Victoria,,13258
Townsville,Townsville,-19.25,146.8167,Australia,AU,AUS,Queensland,,178649
Traralgon,Traralgon,-38.1958,146.5403,Australia,AU,AUS,Victoria,,24933
Tumby Bay,Tumby Bay,-34.3667,136.1,Australia,AU,AUS,South Australia,,1631
Tumut,Tumut,-35.3039,148.2233,Australia,AU,AUS,New South Wales,,6230
Tuncurry,Tuncurry,-32.175,152.4989,Australia,AU,AUS,New South Wales,,6186
Tweed Heads,Tweed Heads,-28.1833,153.55,Australia,AU,AUS,New South Wales,,8176
Ulladulla,Ulladulla,-35.3486,150.4678,Australia,AU,AUS,New South Wales,,15278
Ulverstone,Ulverstone,-41.1667,146.1667,Australia,AU,AUS,Tasmania,,14109
Urraween,Urraween,-25.2955,152.8219,Australia,AU,AUS,Queensland,,6969
Victor Harbor,Victor Harbor,-35.55,138.6167,Australia,AU,AUS,South Australia,,4233
Wagga Wagga,Wagga Wagga,-35.1189,147.3689,Australia,AU,AUS,New South Wales,,67364
Wagin,Wagin,-33.3167,117.35,Australia,AU,AUS,Western Australia,,1495
Wallan,Wallan,-37.4167,144.9833,Australia,AU,AUS,Victoria,,11074
Wallaroo,Wallaroo,-33.9167,137.6167,Australia,AU,AUS,South Australia,,3481
Wangaratta,Wangaratta,-36.3583,146.3125,Australia,AU,AUS,Victoria,,17377
Warragul,Warragul,-38.15,145.9333,Australia,AU,AUS,Victoria,,15757
Warrnambool,Warrnambool,-38.3833,142.4833,Australia,AU,AUS,Victoria,,29661
Warwick,Warwick,-28.2152,152.0352,Australia,AU,AUS,Queensland,,12222
Waterford,Waterford,-27.6906,153.1332,Australia,AU,AUS,Queensland,,6431
Wauchope,Wauchope,-31.45,152.7333,Australia,AU,AUS,New South Wales,,6312
Weipa,Weipa,-12.6167,141.8667,Australia,AU,AUS,Queensland,,3291
Wentworth Falls,Wentworth Falls,-33.7164,150.3772,Australia,AU,AUS,New South Wales,,6076
Whittlesea,Whittlesea,-37.5139,145.114,Australia,AU,AUS,Victoria,,5611
Whyalla,Whyalla,-33.0333,137.5667,Australia,AU,AUS,South Australia,,21501
Wilcannia,Wilcannia,-31.565,143.3678,Australia,AU,AUS,New South Wales,,745
Windorah,Windorah,-25.4206,142.6547,Australia,AU,AUS,Queensland,,115
Wingham,Wingham,-31.85,152.367,Australia,AU,AUS,New South Wales,,5374
Winton,Winton,-22.3913,143.0381,Australia,AU,AUS,Queensland,,875
Wodonga,Wodonga,-36.1214,146.8881,Australia,AU,AUS,Victoria,,18948
Wollert,Wollert,-37.5833,145.0333,Australia,AU,AUS,Victoria,,9060
Wollongong,Wollongong,-34.4331,150.8831,Australia,AU,AUS,New South Wales,,261896
Wonthaggi,Wonthaggi,-38.6056,145.5917,Australia,AU,AUS,Victoria,,4965
Woodend,Woodend,-37.363,144.526,Australia,AU,AUS,Victoria,,5806
Woolgoolga,Woolgoolga,-30.115,153.2011,Australia,AU,AUS,New South Wales,,5290
Woomera,Woomera,-31.1496,136.8,Australia,AU,AUS,South Australia,,450
Worragee,Worragee,-34.9144,150.6386,Australia,AU,AUS,New South Wales,,5068
Wyndham,Wyndham,-15.4825,128.123,Australia,AU,AUS,Western Australia,,780
Wynyard,Wynyard,-41,145.7167,Australia,AU,AUS,Tasmania,,6001
Yamba,Yamba,-29.44,153.3594,Australia,AU,AUS,New South Wales,,6076
Yanchep,Yanchep,-31.55,115.634,Australia,AU,AUS,Western Australia,,8859
Yarrawonga,Yarrawonga,-36.0167,146,Australia,AU,AUS,Victoria,,7930
Yass,Yass,-34.8203,148.9136,Australia,AU,AUS,New South Wales,,6506
Yeppoon,Yeppoon,-23.1288,150.7444,Australia,AU,AUS,Queensland,,6334
Young,Young,-34.3,148.3,Australia,AU,AUS,New South Wales,,10295
Yulara,Yulara,-25.2406,130.9889,Australia,AU,AUS,Northern Territory,,1099
Absam,Absam,47.2965,11.5149,Austria,AT,AUT,Tirol,,7112
Abtenau,Abtenau,47.5333,13.35,Austria,AT,AUT,Salzburg,,5842
Admont,Admont,47.5731,14.4611,Austria,AT,AUT,Steiermark,,5010
Alkoven,Alkoven,48.2872,14.1069,Austria,AT,AUT,Oberösterreich,,5961
Altach,Altach,47.35,9.65,Austria,AT,AUT,Vorarlberg,,6624
Altmünster,Altmunster,47.9,13.7667,Austria,AT,AUT,Oberösterreich,,9793
Amstetten,Amstetten,48.1167,14.8667,Austria,AT,AUT,Niederösterreich,minor,23656
Andorf,Andorf,48.3667,13.5667,Austria,AT,AUT,Oberösterreich,,5174
Ansfelden,Ansfelden,48.2083,14.2889,Austria,AT,AUT,Oberösterreich,,16194
Arnoldstein,Arnoldstein,46.5506,13.7039,Austria,AT,AUT,Kärnten,,7096
Asten,Asten,48.2167,14.4167,Austria,AT,AUT,Oberösterreich,,6613
Attnang-Puchheim,Attnang-Puchheim,48.0167,13.7167,Austria,AT,AUT,Oberösterreich,,8944
Axams,Axams,47.2303,11.2792,Austria,AT,AUT,Tirol,,6048
Bad Gleichenberg,Bad Gleichenberg,46.8702,15.9027,Austria,AT,AUT,Steiermark,,5314
Bad Goisern,Bad Goisern,47.6417,13.6167,Austria,AT,AUT,Oberösterreich,,7450
Bad Hall,Bad Hall,48.0344,14.2097,Austria,AT,AUT,Oberösterreich,,5043
Bad Hofgastein,Bad Hofgastein,47.1711,13.1072,Austria,AT,AUT,Salzburg,,6914
Bad Ischl,Bad Ischl,47.7115,13.6239,Austria,AT,AUT,Oberösterreich,,14133
Bad Vöslau,Bad Voslau,47.9669,16.2144,Austria,AT,AUT,Niederösterreich,,11844
Bergheim,Bergheim,47.8403,13.0222,Austria,AT,AUT,Salzburg,,5388
Bischofshofen,Bischofshofen,47.4172,13.2194,Austria,AT,AUT,Salzburg,,10540
Bludenz,Bludenz,47.1533,9.8219,Austria,AT,AUT,Vorarlberg,minor,14539
Böheimkirchen,Boheimkirchen,48.1978,15.7622,Austria,AT,AUT,Niederösterreich,,5087
Braunau am Inn,Braunau am Inn,48.2583,13.0333,Austria,AT,AUT,Oberösterreich,minor,17095
Bregenz,Bregenz,47.505,9.7492,Austria,AT,AUT,Vorarlberg,admin,29806
Breitenfurth bei Wien,Breitenfurth bei Wien,48.1333,16.15,Austria,AT,AUT,Niederösterreich,,5853
Bruck an der Leitha,Bruck an der Leitha,48.0255,16.779,Austria,AT,AUT,Niederösterreich,minor,7887
Bruck an der Mur,Bruck an der Mur,47.4106,15.2686,Austria,AT,AUT,Steiermark,minor,15837
Brunn am Gebirge,Brunn am Gebirge,48.1069,16.2842,Austria,AT,AUT,Niederösterreich,,11864
Deutschlandsberg,Deutschlandsberg,46.8161,15.215,Austria,AT,AUT,Steiermark,minor,11663
Deutsch-Wagram,Deutsch-Wagram,48.2994,16.5644,Austria,AT,AUT,Niederösterreich,,8651
Dornbirn,Dornbirn,47.4167,9.75,Austria,AT,AUT,Vorarlberg,minor,48067
Ebbs,Ebbs,47.63,12.2147,Austria,AT,AUT,Tirol,,5601
Ebensee,Ebensee,47.8122,13.7731,Austria,AT,AUT,Oberösterreich,,7717
Eberndorf,Eberndorf,46.5914,14.6436,Austria,AT,AUT,Kärnten,,5862
Ebreichsdorf,Ebreichsdorf,47.9611,16.4047,Austria,AT,AUT,Niederösterreich,,10942
Eggersdorf bei Graz,Eggersdorf bei Graz,47.1228,15.5992,Austria,AT,AUT,Steiermark,,6620
Eibiswald,Eibiswald,46.6867,15.2472,Austria,AT,AUT,Steiermark,,6485
Eisenstadt,Eisenstadt,47.8456,16.5189,Austria,AT,AUT,Burgenland,admin,14476
Elsbethen,Elsbethen,47.7636,13.0817,Austria,AT,AUT,Salzburg,,5424
Engerwitzdorf,Engerwitzdorf,48.3397,14.4256,Austria,AT,AUT,Oberösterreich,,8790
Enns,Enns,48.2167,14.475,Austria,AT,AUT,Oberösterreich,,11937
Eugendorf,Eugendorf,47.8669,13.1242,Austria,AT,AUT,Salzburg,,6937
Fehring,Fehring,46.9364,16.0106,Austria,AT,AUT,Steiermark,,7284
Feldbach,Feldbach,46.955,15.8883,Austria,AT,AUT,Steiermark,minor,13369
Feldkirchen,Feldkirchen,46.7236,14.0919,Austria,AT,AUT,Kärnten,minor,14198
Feldkirchen an der Donau,Feldkirchen an der Donau,48.3456,14.0503,Austria,AT,AUT,Oberösterreich,,5361
Feldkirchen bei Graz,Feldkirchen bei Graz,47.0125,15.4425,Austria,AT,AUT,Steiermark,,6622
Ferlach,Ferlach,46.5269,14.3019,Austria,AT,AUT,Kärnten,,7141
Fischamend,Fischamend,48.1156,16.6128,Austria,AT,AUT,Niederösterreich,,5583
Fohnsdorf,Fohnsdorf,47.2083,14.6794,Austria,AT,AUT,Steiermark,,7693
Freistadt,Freistadt,48.5117,14.5061,Austria,AT,AUT,Oberösterreich,minor,7909
Frohnleiten,Frohnleiten,47.2703,15.3244,Austria,AT,AUT,Steiermark,,6655
Fürstenfeld,Furstenfeld,47.05,16.0833,Austria,AT,AUT,Steiermark,,8549
Gallneukirchen,Gallneukirchen,48.3531,14.4158,Austria,AT,AUT,Oberösterreich,,6492
Gänserndorf,Ganserndorf,48.3406,16.7175,Austria,AT,AUT,Niederösterreich,minor,11404
Garsten,Garsten,48.0217,14.4089,Austria,AT,AUT,Oberösterreich,,6711
Gerasdorf bei Wien,Gerasdorf bei Wien,48.295,16.4675,Austria,AT,AUT,Niederösterreich,,11155
Gleisdorf,Gleisdorf,47.1039,15.7083,Austria,AT,AUT,Steiermark,,10763
Gloggnitz,Gloggnitz,47.6758,15.9383,Austria,AT,AUT,Niederösterreich,,5916
Gmünd,Gmund,48.7667,14.9833,Austria,AT,AUT,Niederösterreich,minor,5375
Gmunden,Gmunden,47.9181,13.7994,Austria,AT,AUT,Oberösterreich,minor,13191
Gnas,Gnas,46.8749,15.8263,Austria,AT,AUT,Steiermark,,6046
Götzis,Gotzis,47.3342,9.6453,Austria,AT,AUT,Vorarlberg,,11473
Gramastetten,Gramastetten,48.3811,14.19,Austria,AT,AUT,Oberösterreich,,5102
Gratkorn,Gratkorn,47.1356,15.3392,Austria,AT,AUT,Steiermark,,7892
Graz,Graz,47.0708,15.4386,Austria,AT,AUT,Steiermark,admin,289440
Grieskirchen,Grieskirchen,48.235,13.8319,Austria,AT,AUT,Oberösterreich,minor,5002
Grödig,Grodig,47.7394,13.0361,Austria,AT,AUT,Salzburg,,7262
Groß-Enzersdorf,Gross-Enzersdorf,48.2,16.55,Austria,AT,AUT,Niederösterreich,,11206
Gunskirchen,Gunskirchen,48.1344,13.9431,Austria,AT,AUT,Oberösterreich,,6037
Guntramsdorf,Guntramsdorf,48.0483,16.315,Austria,AT,AUT,Niederösterreich,,9179
Haag,Haag,48.1122,14.5656,Austria,AT,AUT,Niederösterreich,,5548
Hafendorf,Hafendorf,47.4556,15.3194,Austria,AT,AUT,Steiermark,,7177
Hainburg an der Donau,Hainburg an der Donau,48.1478,16.9419,Austria,AT,AUT,Niederösterreich,,6570
Hall in Tirol,Hall in Tirol,47.2833,11.5,Austria,AT,AUT,Tirol,,13897
Hallein,Hallein,47.6667,13.0833,Austria,AT,AUT,Salzburg,minor,21150
Hard,Hard,47.4892,9.69,Austria,AT,AUT,Vorarlberg,,13495
Hartberg,Hartberg,47.2806,15.97,Austria,AT,AUT,Steiermark,minor,6650
Herzogenburg,Herzogenburg,48.2833,15.6833,Austria,AT,AUT,Niederösterreich,,7771
Himberg,Himberg,48.0667,16.4333,Austria,AT,AUT,Niederösterreich,,7375
Hitzendorf,Hitzendorf,47.0353,15.3008,Austria,AT,AUT,Steiermark,,7134
Höchst,Hochst,47.4592,9.64,Austria,AT,AUT,Vorarlberg,,7995
Hohenems,Hohenems,47.3667,9.6667,Austria,AT,AUT,Vorarlberg,,16317
Hollabrunn,Hollabrunn,48.5667,16.0833,Austria,AT,AUT,Niederösterreich,minor,11681
Hopfgarten im Brixental,Hopfgarten im Brixental,47.45,12.1667,Austria,AT,AUT,Tirol,,5677
Hörbranz,Horbranz,47.5553,9.7528,Austria,AT,AUT,Vorarlberg,,6346
Horn,Horn,48.6653,15.6558,Austria,AT,AUT,Niederösterreich,minor,6520
Hörsching,Horsching,48.2267,14.1794,Austria,AT,AUT,Oberösterreich,,6062
Imst,Imst,47.2394,10.7381,Austria,AT,AUT,Tirol,minor,10504
Innsbruck,Innsbruck,47.2683,11.3933,Austria,AT,AUT,Tirol,admin,132493
Jenbach,Jenbach,47.3933,11.7767,Austria,AT,AUT,Tirol,,7120
Judenburg,Judenburg,47.1725,14.6603,Austria,AT,AUT,Steiermark,minor,9960
Kalsdorf bei Graz,Kalsdorf bei Graz,46.9661,15.4817,Austria,AT,AUT,Steiermark,,6954
Kapfenberg,Kapfenberg,47.4394,15.2894,Austria,AT,AUT,Steiermark,,22798
Kindberg,Kindberg,47.5044,15.4489,Austria,AT,AUT,Steiermark,,8047
Kirchberg in Tirol,Kirchberg in Tirol,47.45,12.3167,Austria,AT,AUT,Tirol,,5245
Kirchbichl,Kirchbichl,47.5167,12.0667,Austria,AT,AUT,Tirol,,5855
Kitzbühel,Kitzbuhel,47.4464,12.3919,Austria,AT,AUT,Tirol,minor,8272
Klagenfurt,Klagenfurt,46.6167,14.3,Austria,AT,AUT,Kärnten,admin,101403
Klosterneuburg,Klosterneuburg,48.3042,16.3167,Austria,AT,AUT,Niederösterreich,minor,27058
Knittelfeld,Knittelfeld,47.215,14.8294,Austria,AT,AUT,Steiermark,,12626
Köflach,Koflach,47.0639,15.0889,Austria,AT,AUT,Steiermark,,9888
Korneuburg,Korneuburg,48.3453,16.3331,Austria,AT,AUT,Niederösterreich,minor,12986
Kottingbrunn,Kottingbrunn,47.9519,16.2292,Austria,AT,AUT,Niederösterreich,,7417
Krems an der Donau,Krems an der Donau,48.4167,15.6167,Austria,AT,AUT,Niederösterreich,minor,24610
Kremsmünster,Kremsmunster,48.055,14.1308,Austria,AT,AUT,Oberösterreich,,6585
Krieglach,Krieglach,47.5456,15.5594,Austria,AT,AUT,Steiermark,,5305
Kuchl,Kuchl,47.6278,13.1472,Austria,AT,AUT,Salzburg,,7274
Kufstein,Kufstein,47.5833,12.1667,Austria,AT,AUT,Tirol,minor,19223
Laa an der Thaya,Laa an der Thaya,48.7167,16.3833,Austria,AT,AUT,Niederösterreich,,6280
Laakirchen,Laakirchen,47.9828,13.8242,Austria,AT,AUT,Oberösterreich,,9861
Landeck,Landeck,47.1333,10.5667,Austria,AT,AUT,Tirol,minor,7725
Langenlois,Langenlois,48.4667,15.6833,Austria,AT,AUT,Niederösterreich,,7609
Langenzersdorf,Langenzersdorf,48.3069,16.3553,Austria,AT,AUT,Niederösterreich,,8137
Lauterach,Lauterach,47.4772,9.7314,Austria,AT,AUT,Vorarlberg,,10028
Leibnitz,Leibnitz,46.7831,15.545,Austria,AT,AUT,Steiermark,minor,12176
Lenzing,Lenzing,47.9761,13.5956,Austria,AT,AUT,Oberösterreich,,5043
Leoben,Leoben,47.3817,15.0972,Austria,AT,AUT,Steiermark,minor,24645
Leonding,Leonding,48.2792,14.2528,Austria,AT,AUT,Oberösterreich,,28698
Leopoldsdorf,Leopoldsdorf,48.1167,16.4,Austria,AT,AUT,Niederösterreich,,5078
Lieboch,Lieboch,46.9742,15.3375,Austria,AT,AUT,Steiermark,,5096
Lienz,Lienz,46.8297,12.7697,Austria,AT,AUT,Tirol,minor,11844
Liezen,Liezen,47.5667,14.2333,Austria,AT,AUT,Steiermark,minor,8191
Linz,Linz,48.3,14.2833,Austria,AT,AUT,Oberösterreich,admin,204846
Lochau,Lochau,47.53,9.7517,Austria,AT,AUT,Vorarlberg,,5747
Lustenau,Lustenau,47.4271,9.6711,Austria,AT,AUT,Vorarlberg,,22821
Marchtrenk,Marchtrenk,48.1917,14.1106,Austria,AT,AUT,Oberösterreich,,13603
Maria Enzersdorf,Maria Enzersdorf,48.1,16.2833,Austria,AT,AUT,Niederösterreich,,8829
Markt Sankt Florian,Markt Sankt Florian,48.2089,14.3794,Austria,AT,AUT,Oberösterreich,,6176
Mattersburg,Mattersburg,47.7381,16.3969,Austria,AT,AUT,Burgenland,minor,7349
Mattighofen,Mattighofen,48.1067,13.1494,Austria,AT,AUT,Oberösterreich,,6524
Melk,Melk,48.2269,15.3439,Austria,AT,AUT,Niederösterreich,minor,5529
Mistelbach,Mistelbach,48.5667,16.5667,Austria,AT,AUT,Niederösterreich,minor,11559
Mittermicheldorf,Mittermicheldorf,47.8781,14.1333,Austria,AT,AUT,Oberösterreich,,5854
Mittersill,Mittersill,47.2667,12.4667,Austria,AT,AUT,Salzburg,,5380
Mödling,Modling,48.0856,16.2831,Austria,AT,AUT,Niederösterreich,minor,20555
Mürzzuschlag,Murzzuschlag,47.6075,15.6731,Austria,AT,AUT,Steiermark,,8654
Nenzing,Nenzing,47.1667,9.6833,Austria,AT,AUT,Vorarlberg,,6239
Neuhofen an der Krems,Neuhofen an der Krems,48.1336,14.2333,Austria,AT,AUT,Oberösterreich,,6269
Neulengbach,Neulengbach,48.1833,15.9,Austria,AT,AUT,Niederösterreich,,8281
Neumarkt am Wallersee,Neumarkt am Wallersee,47.9453,13.2247,Austria,AT,AUT,Salzburg,,6297
Neunkirchen,Neunkirchen,47.7269,16.0817,Austria,AT,AUT,Niederösterreich,minor,12879
Neusiedl am See,Neusiedl am See,47.9486,16.8431,Austria,AT,AUT,Burgenland,minor,8235
Oberndorf bei Salzburg,Oberndorf bei Salzburg,47.9417,12.9417,Austria,AT,AUT,Salzburg,,5815
Oberwart,Oberwart,47.2878,16.2031,Austria,AT,AUT,Burgenland,minor,7572
Ohlsdorf,Ohlsdorf,47.9614,13.7928,Austria,AT,AUT,Oberösterreich,,5209
Pasching,Pasching,48.2589,14.2028,Austria,AT,AUT,Oberösterreich,,7552
Paternion,Paternion,46.7122,13.6378,Austria,AT,AUT,Kärnten,,5819
Perchtoldsdorf,Perchtoldsdorf,48.1167,16.2667,Austria,AT,AUT,Niederösterreich,,15047
Perg,Perg,48.2503,14.6336,Austria,AT,AUT,Oberösterreich,minor,8388
Pettenbach,Pettenbach,47.9617,14.0167,Austria,AT,AUT,Oberösterreich,,5272
Pinkafeld,Pinkafeld,47.3717,16.1219,Austria,AT,AUT,Burgenland,,5779
Pöllau,Pollau,47.3019,15.8339,Austria,AT,AUT,Steiermark,,6054
Pottendorf,Pottendorf,47.9064,16.3908,Austria,AT,AUT,Niederösterreich,,7049
Poysdorf,Poysdorf,48.6667,16.6333,Austria,AT,AUT,Niederösterreich,,5527
Pregarten,Pregarten,48.3556,14.5306,Austria,AT,AUT,Oberösterreich,,5293
Pressbaum,Pressbaum,48.1833,16.0825,Austria,AT,AUT,Niederösterreich,,7559
Purkersdorf,Purkersdorf,48.2092,16.1792,Austria,AT,AUT,Niederösterreich,,9701
Radenthein,Radenthein,46.8,13.7,Austria,AT,AUT,Kärnten,,5831
Rankweil,Rankweil,47.2667,9.65,Austria,AT,AUT,Vorarlberg,,11852
Reutte,Reutte,47.4833,10.7167,Austria,AT,AUT,Tirol,minor,6704
Ried im Innkreis,Ried im Innkreis,48.21,13.4894,Austria,AT,AUT,Oberösterreich,minor,11903
Rottenmann,Rottenmann,47.5267,14.3558,Austria,AT,AUT,Steiermark,,5232
Rum,Rum,47.2872,11.4581,Austria,AT,AUT,Tirol,,9190
Saalfelden am Steinernen Meer,Saalfelden am Steinernen Meer,47.4269,12.8483,Austria,AT,AUT,Salzburg,,16700
Salzburg,Salzburg,47.7972,13.0477,Austria,AT,AUT,Salzburg,admin,155021
Sankt Andrä,Sankt Andra,46.7667,14.8167,Austria,AT,AUT,Kärnten,,9957
Sankt Andrä vor dem Hagenthale,Sankt Andra vor dem Hagenthale,48.3278,16.2094,Austria,AT,AUT,Niederösterreich,,7870
Sankt Johann im Pongau,Sankt Johann im Pongau,47.35,13.2,Austria,AT,AUT,Salzburg,minor,11235
Sankt Johann in Tirol,Sankt Johann in Tirol,47.5225,12.4256,Austria,AT,AUT,Tirol,,9428
Sankt Peter in der Au Dorf,Sankt Peter in der Au Dorf,48.045,14.6247,Austria,AT,AUT,Niederösterreich,,5119
Sankt Pölten,Sankt Polten,48.2,15.6167,Austria,AT,AUT,Niederösterreich,admin,55514
Sankt Ruprecht an der Raab,Sankt Ruprecht an der Raab,47.1539,15.6622,Austria,AT,AUT,Steiermark,,5300
Sankt Valentin,Sankt Valentin,48.1747,14.5333,Austria,AT,AUT,Niederösterreich,,9340
Sankt Veit an der Glan,Sankt Veit an der Glan,46.7667,14.3603,Austria,AT,AUT,Kärnten,minor,12547
Schärding,Scharding,48.4569,13.4317,Austria,AT,AUT,Oberösterreich,minor,5253
Schladming,Schladming,47.3942,13.6892,Austria,AT,AUT,Steiermark,,6660
Schrems,Schrems,48.7833,15.0667,Austria,AT,AUT,Niederösterreich,,5404
Schwaz,Schwaz,47.35,11.7,Austria,AT,AUT,Tirol,minor,13728
Schwechat,Schwechat,48.1411,16.4786,Austria,AT,AUT,Niederösterreich,,18026
Schwertberg,Schwertberg,48.2717,14.5833,Austria,AT,AUT,Oberösterreich,,5365
Seeboden,Seeboden,46.8189,13.5183,Austria,AT,AUT,Kärnten,,6418
Seiersberg,Seiersberg,47.01,15.3989,Austria,AT,AUT,Steiermark,,7351
Sieghartskirchen,Sieghartskirchen,48.2539,16.0125,Austria,AT,AUT,Niederösterreich,,7528
Sierning,Sierning,48.0447,14.31,Austria,AT,AUT,Oberösterreich,,9371
Sollenau,Sollenau,47.9,16.25,Austria,AT,AUT,Niederösterreich,,5038
Spielberg bei Knittelfeld,Spielberg bei Knittelfeld,47.2167,14.7833,Austria,AT,AUT,Steiermark,,5383
Spittal an der Drau,Spittal an der Drau,46.7917,13.4958,Austria,AT,AUT,Kärnten,minor,15413
Stadl-Paura,Stadl-Paura,48.0839,13.8639,Austria,AT,AUT,Oberösterreich,,5053
Stainz,Stainz,46.8942,15.2639,Austria,AT,AUT,Steiermark,,8653
Steyr,Steyr,48.05,14.4167,Austria,AT,AUT,Oberösterreich,minor,38331
Stockerau,Stockerau,48.3858,16.2108,Austria,AT,AUT,Niederösterreich,,16916
Strasshof an der Nordbahn,Strasshof an der Nordbahn,48.3194,16.6475,Austria,AT,AUT,Niederösterreich,,10009
Strasswalchen,Strasswalchen,47.98,13.2547,Austria,AT,AUT,Salzburg,,7420
Tamsweg,Tamsweg,47.1167,13.8,Austria,AT,AUT,Salzburg,minor,5717
Telfs,Telfs,47.3069,11.0722,Austria,AT,AUT,Tirol,,15747
Ternitz,Ternitz,47.7167,16.0333,Austria,AT,AUT,Niederösterreich,,14632
Thalgau,Thalgau,47.8413,13.2537,Austria,AT,AUT,Salzburg,,5931
Thalheim bei Wels,Thalheim bei Wels,48.1514,14.0383,Austria,AT,AUT,Oberösterreich,,5482
Timelkam,Timelkam,48.0014,13.6125,Austria,AT,AUT,Oberösterreich,,5708
Traiskirchen,Traiskirchen,48.0189,16.2922,Austria,AT,AUT,Niederösterreich,,18858
Traismauer,Traismauer,48.3333,15.7331,Austria,AT,AUT,Niederösterreich,,6224
Traun,Traun,48.2217,14.2397,Austria,AT,AUT,Oberösterreich,,24477
Trofaiach,Trofaiach,47.4261,15.0067,Austria,AT,AUT,Steiermark,,11125
Velden am Wörthersee,Velden am Worthersee,46.6125,14.0419,Austria,AT,AUT,Kärnten,,8952
Vienna,Vienna,48.2083,16.3725,Austria,AT,AUT,Wien,primary,1911191
Villach,Villach,46.6167,13.8333,Austria,AT,AUT,Kärnten,minor,61879
Vöcklabruck,Vocklabruck,48.0086,13.6558,Austria,AT,AUT,Oberösterreich,minor,12179
Voitsberg,Voitsberg,47.0483,15.1503,Austria,AT,AUT,Steiermark,minor,9403
Völkermarkt,Volkermarkt,46.6622,14.6344,Austria,AT,AUT,Kärnten,minor,10946
Völs,Vols,47.25,11.3333,Austria,AT,AUT,Tirol,,6738
Vomp,Vomp,47.3422,11.6833,Austria,AT,AUT,Tirol,,5146
Vorchdorf,Vorchdorf,48.0042,13.9242,Austria,AT,AUT,Oberösterreich,,7475
Vösendorf,Vosendorf,48.1167,16.3333,Austria,AT,AUT,Niederösterreich,,6990
Wagna,Wagna,46.7681,15.5583,Austria,AT,AUT,Steiermark,,5859
Waidhofen an der Thaya,Waidhofen an der Thaya,48.8167,15.2833,Austria,AT,AUT,Niederösterreich,minor,5501
Waidhofen an der Ybbs,Waidhofen an der Ybbs,47.9596,14.7745,Austria,AT,AUT,Niederösterreich,,11333
Wattens,Wattens,47.2914,11.5925,Austria,AT,AUT,Tirol,,7881
Weiz,Weiz,47.2189,15.6253,Austria,AT,AUT,Steiermark,minor,11627
Wels,Wels,48.15,14.0167,Austria,AT,AUT,Oberösterreich,minor,61233
Wernberg,Wernberg,46.6231,13.9394,Austria,AT,AUT,Kärnten,,5587
Wiener Neudorf,Wiener Neudorf,48.0856,16.3131,Austria,AT,AUT,Niederösterreich,,9433
Wiener Neustadt,Wiener Neustadt,47.8167,16.25,Austria,AT,AUT,Niederösterreich,minor,44461
Wildon,Wildon,46.8869,15.5142,Austria,AT,AUT,Steiermark,,5367
Wilhelmsburg,Wilhelmsburg,48.1108,15.61,Austria,AT,AUT,Niederösterreich,,6557
Wilhering,Wilhering,48.3239,14.1906,Austria,AT,AUT,Oberösterreich,,5911
Wolfsberg,Wolfsberg,46.8419,14.8408,Austria,AT,AUT,Kärnten,minor,25035
Wolfurt,Wolfurt,47.4731,9.7539,Austria,AT,AUT,Vorarlberg,,8429
Wolkersdorf im Weinviertel,Wolkersdorf im Weinviertel,48.3667,16.5167,Austria,AT,AUT,Niederösterreich,,7201
Wörgl,Worgl,47.4831,12.0664,Austria,AT,AUT,Tirol,,13811
Ybbs an der Donau,Ybbs an der Donau,48.1667,15.0667,Austria,AT,AUT,Niederösterreich,,5653
Zell am See,Zell am See,47.3233,12.7981,Austria,AT,AUT,Salzburg,minor,9762
Zeltweg,Zeltweg,47.1906,14.7511,Austria,AT,AUT,Steiermark,,7212
Zirl,Zirl,47.2733,11.2414,Austria,AT,AUT,Tirol,,8162
Zistersdorf,Zistersdorf,48.5167,16.75,Austria,AT,AUT,Niederösterreich,,5391
Zwettl,Zwettl,48.6033,15.1689,Austria,AT,AUT,Niederösterreich,minor,10908
Ağcabədi,Agcabadi,40.0489,47.4502,Azerbaijan,AZ,AZE,Ağcabədi,admin,39200
Ağdam,Agdam,39.9833,46.9167,Azerbaijan,AZ,AZE,Ağdam,admin,3770
Ağdam,Agdam,40.9053,45.5564,Azerbaijan,AZ,AZE,Tovuz,,0
Ağdaş,Agdas,40.65,47.4833,Azerbaijan,AZ,AZE,Ağdaş,admin,29600
Ağstafa,Agstafa,41.1167,45.45,Azerbaijan,AZ,AZE,Ağstafa,admin,20200
Ağsu,Agsu,40.5708,48.3928,Azerbaijan,AZ,AZE,Ağsu,admin,20200
Aşağı Ayıblı,Asagi Ayibli,40.9347,45.8261,Azerbaijan,AZ,AZE,Tovuz,,9983
Astara,Astara,38.44,48.875,Azerbaijan,AZ,AZE,Astara,admin,16800
Babək,Babak,39.1111,45.4114,Azerbaijan,AZ,AZE,Babək,admin,5600
Bakıxanov,Bakixanov,40.4217,49.9644,Azerbaijan,AZ,AZE,Bakı,,71600
Baku,Baku,40.3667,49.8352,Azerbaijan,AZ,AZE,Bakı,primary,2181800
Balakən,Balakan,41.7186,46.4165,Azerbaijan,AZ,AZE,Balakən,admin,8134
Bərdə,Barda,40.3831,47.1186,Azerbaijan,AZ,AZE,Bərdə,admin,38500
Beyləqan,Beylaqan,39.7692,47.6156,Azerbaijan,AZ,AZE,Beyləqan,admin,12263
Biləsuvar,Bilasuvar,39.4481,48.5428,Azerbaijan,AZ,AZE,Biləsuvar,admin,22800
Buzovna,Buzovna,40.5167,50.1167,Azerbaijan,AZ,AZE,Bakı,,31500
Cəbrayıl,Cabrayil,39.4,47.0261,Azerbaijan,AZ,AZE,Cəbrayıl,admin,6070
Cəlilabad,Calilabad,39.2042,48.4958,Azerbaijan,AZ,AZE,Cəlilabad,admin,25846
Corat,Corat,40.5739,49.7036,Azerbaijan,AZ,AZE,Sumqayıt,,12900
Culfa,Culfa,38.9558,45.6308,Azerbaijan,AZ,AZE,Culfa,admin,12500
Daşkəsən,Daskasan,40.5181,46.0828,Azerbaijan,AZ,AZE,Daşkəsən,admin,10700
Dəvəçi,Davaci,41.2012,48.9871,Azerbaijan,AZ,AZE,Şabran,admin,
Əhmədli,Ahmadli,40.3839,49.9475,Azerbaijan,AZ,AZE,Bakı,,10974
Ələt,Alat,39.9483,49.4067,Azerbaijan,AZ,AZE,Bakı,,12600
Əmircan,Amircan,40.4236,49.9886,Azerbaijan,AZ,AZE,Bakı,,29800
Füzuli,Fuzuli,39.6003,47.1431,Azerbaijan,AZ,AZE,Füzuli,admin,17500
Gədəbəy,Gadabay,40.5656,45.8161,Azerbaijan,AZ,AZE,Gədəbəy,admin,8657
Gəncə,Ganca,40.6828,46.3606,Azerbaijan,AZ,AZE,Gəncə,admin,331400
Goranboy,Goranboy,40.61,46.7872,Azerbaijan,AZ,AZE,Goranboy,admin,7400
Göyçay,Goycay,40.6553,47.7389,Azerbaijan,AZ,AZE,Göyçay,admin,36200
Göygöl,Goygol,40.5858,46.3189,Azerbaijan,AZ,AZE,Göygöl,admin,
Göytəpə,Goytapa,39.1167,48.5953,Azerbaijan,AZ,AZE,Cəlilabad,,10067
Hacı Zeynalabdin,Haci Zeynalabdin,40.6242,49.5575,Azerbaijan,AZ,AZE,Sumqayıt,,22000
Hacıqabul,Haciqabul,40.0387,48.9429,Azerbaijan,AZ,AZE,Hacıqabul,admin,
Heydərabad,Heydarabad,39.7229,44.8485,Azerbaijan,AZ,AZE,Sədərək,admin,
İmişli,Imisli,39.8697,48.06,Azerbaijan,AZ,AZE,İmişli,admin,31310
İsmayıllı,Ismayilli,40.7839,48.1439,Azerbaijan,AZ,AZE,İsmayıllı,admin,20660
Kəlbəcər,Kalbacar,40.1098,46.0445,Azerbaijan,AZ,AZE,Kəlbəcər,admin,
Kiş,Kis,41.2594,47.1881,Azerbaijan,AZ,AZE,Şəki,,6244
Kürdəmir,Kurdamir,40.3383,48.1608,Azerbaijan,AZ,AZE,Kürdəmir,admin,15385
Laçın,Lacin,39.6408,46.5469,Azerbaijan,AZ,AZE,Laçın,admin,2190
Lənkəran,Lankaran,38.7536,48.8511,Azerbaijan,AZ,AZE,Lənkəran,admin,51300
Lerik,Lerik,38.7753,48.4153,Azerbaijan,AZ,AZE,Lerik,admin,7301
Liman,Liman,38.8733,48.8139,Azerbaijan,AZ,AZE,Lənkəran,,8661
Lökbatan,Lokbatan,40.3272,49.73,Azerbaijan,AZ,AZE,Bakı,,35523
