PortName,AlternateName,Country,WaterBody,HarborSize,HarborType,HarborUse,Railway,Latitude,Longitude
Shengjin,San Giovani Di Medua,Albania,Adriatic Sea; Mediterranean Sea; North Atlantic Ocean,Very Small,Coastal (Natural),Unknown,Unknown,41.816667,19.6
Durres,Durazzo,Albania,Adriatic Sea; Mediterranean Sea; North Atlantic Ocean,Small,Coastal (Breakwater),Unknown,Large,41.316667,19.45
Vlores, ,Albania,Adriatic Sea; Mediterranean Sea; North Atlantic Ocean,Very Small,Coastal (Natural),Unknown,Unknown,40.466667,19.5
Annaba,Bona; Bone,Algeria,Mediterranean Sea; North Atlantic Ocean,Medium,Coastal (Breakwater),Unknown,Medium,36.916667,7.766667
Skikda,Phillippeville,Algeria,Mediterranean Sea; North Atlantic Ocean,Small,Coastal (Breakwater),Unknown,Medium,36.883333,6.916667
Port Methanier, ,Algeria,Mediterranean Sea; North Atlantic Ocean,Small,Coastal (Breakwater),Unknown,Unknown,36.883333,6.95
Collo, ,Algeria,Mediterranean Sea; North Atlantic Ocean,Very Small,Coastal (Natural),Unknown,Unknown,37,6.583333
Bejaia,Bougie,Algeria,Mediterranean Sea; North Atlantic Ocean,Small,Coastal (Breakwater),Unknown,Medium,36.75,5.083333
Dellys, ,Algeria,Mediterranean Sea; North Atlantic Ocean,Very Small,Coastal (Breakwater),Unknown,Unknown,36.916667,3.916667
Alger,Algiers,Algeria,Mediterranean Sea; North Atlantic Ocean,Large,Coastal (Breakwater),Unknown,Large,36.766667,3.066667
Tenes, ,Algeria,Mediterranean Sea; North Atlantic Ocean,Very Small,Open Roadstead,Unknown,Unknown,36.533333,1.316667
Mostaganem, ,Algeria,Mediterranean Sea; North Atlantic Ocean,Very Small,Coastal (Breakwater),Unknown,Small,35.933333,0.083333
Arzew, ,Algeria,Mediterranean Sea; North Atlantic Ocean,Small,Coastal (Breakwater),Unknown,Small,35.85,-0.3
Arzew El Djedid, ,Algeria,Mediterranean Sea; North Atlantic Ocean,Small,Coastal (Breakwater),Unknown,Small,35.816667,-0.25
Oran, ,Algeria,Mediterranean Sea; North Atlantic Ocean,Large,Coastal (Breakwater),Unknown,Large,35.7,-0.633333
Mers El Kebir, ,Algeria,Mediterranean Sea; North Atlantic Ocean,Small,Coastal (Breakwater),Unknown,Unknown,35.733333,-0.7
Beni Saf, ,Algeria,Mediterranean Sea; North Atlantic Ocean,Very Small,Coastal (Breakwater),Unknown,Small,35.3,-1.383333
Ghazaouet,Nemours,Algeria,Mediterranean Sea; North Atlantic Ocean,Very Small,Coastal (Breakwater),Unknown,Large,35.1,-1.866667
Pago Pago Harbor, ,American Samoa,South Pacific Ocean,Small,Coastal (Natural),Unknown,Small,-14.283333,-170.666667
Takula Terminal, ,Angola,South Atlantic Ocean,Small,Open Roadstead,Unknown,Unknown,-5.216667,11.783333
Malongo Oil Terminal, ,Angola,South Atlantic Ocean,Small,Open Roadstead,Unknown,Unknown,-5.433333,12.083333
Kuito Oil Field, ,Angola,South Atlantic Ocean,Very Small,Open Roadstead,Unknown,Unknown,-5.466667,11.5
Cabinda,Kabinda,Angola,South Atlantic Ocean,Small,Open Roadstead,Unknown,Unknown,-5.533333,12.2
Futila Terminal, ,Angola,South Atlantic Ocean,Very Small,Open Roadstead,Unknown,Unknown,-5.45,12.183333
Kizomba A Terminal, ,Angola,South Atlantic Ocean,Very Small,Open Roadstead,Unknown,Unknown,-6.316667,11.05
Kizomba B Terminal, ,Angola,South Atlantic Ocean,Very Small,Open Roadstead,Unknown,Unknown,-6.35,11.15
Kizomba C Terminal, ,Angola,South Atlantic Ocean,Very Small,Open Roadstead,Unknown,Unknown,-6.316667,11.283333
Psvm Terminal, ,Angola,South Atlantic Ocean,Very Small,Open Roadstead,Unknown,Unknown,-6.25,10.733333
Palanca Terminal, ,Angola,South Atlantic Ocean,Small,Open Roadstead,Unknown,Unknown,-6.95,12.4
Dalia Terminal, ,Angola,South Atlantic Ocean,Very Small,Open Roadstead,Unknown,Unknown,-7.683333,11.766667
Greater Plutonio Terminal, ,Angola,South Atlantic Ocean,Very Small,Open Roadstead,Unknown,Unknown,-7.833333,12.1
Luanda, ,Angola,South Atlantic Ocean,Small,Coastal (Natural),Unknown,Unknown,-8.8,13.25
Porto Amboim, ,Angola,South Atlantic Ocean,Very Small,Open Roadstead,Unknown,Unknown,-10.733333,13.75
Sumbe,Gunza-Kabolo; Nova Redonda,Angola,South Atlantic Ocean,Very Small,Open Roadstead,Unknown,Unknown,-11.2,13.833333
Lobito, ,Angola,South Atlantic Ocean,Small,Coastal (Natural),Unknown,Unknown,-12.333333,13.566667
Namibe,Mocamedes,Angola,South Atlantic Ocean,Small,Open Roadstead,Unknown,Small,-15.2,12.15
Ellefsen Harbor, ,Antarctica,Scotia Sea; South Atlantic Ocean,Very Small,Coastal (Natural),Unknown,Unknown,-60.733333,-45.033333
Scotia Bay, ,Antarctica,Scotia Sea; South Atlantic Ocean,Very Small,Coastal (Natural),Unknown,Unknown,-60.75,-44.716667
Admiralty Bay, ,Antarctica,Bransfield Strait; Drake Passage; South Atlantic Ocean,Very Small,Coastal (Natural),Unknown,Unknown,-62.083333,-58.416667
Port Foster, ,Antarctica,Bransfield Strait; Drake Passage; South Atlantic Ocean,Very Small,Coastal (Natural),Unknown,Unknown,-62.95,-60.633333
Port Lockroy, ,Antarctica,South Pacific Ocean,Very Small,Coastal (Natural),Unknown,Unknown,-64.816667,-63.5
Melchior Harbor, ,Antarctica,South Pacific Ocean,Very Small,Coastal (Natural),Unknown,Unknown,-64.316667,-63
Andersen Harbor, ,Antarctica,South Pacific Ocean,Very Small,Coastal (Natural),Unknown,Unknown,-64.316667,-62.933333
Mcmurdo Station, ,Antarctica,Ross Sea; South Pacific Ocean,Small,Coastal (Natural),Unknown,Unknown,-77.85,166.65
St Johns, ,Antigua and Barbuda,Caribbean Sea; North Atlantic Ocean,Medium,Open Roadstead,Unknown,Unknown,17.116667,-61.85
San Nicolas, ,Argentina,Rio de la Plata; South Atlantic Ocean,Very Small,River (Natural),Unknown,Unknown,-33.333333,-60.233333
San Pedro,Puerto Obligado,Argentina,Rio de la Plata; South Atlantic Ocean,Very Small,River (Natural),Unknown,Unknown,-33.583333,-59.816667
Puerto Ibicuy, ,Argentina,Rio de la Plata; South Atlantic Ocean,Very Small,River (Natural),Unknown,Unknown,-33.75,-59.183333
Zarate, ,Argentina,Rio de la Plata; South Atlantic Ocean,Small,River (Natural),Unknown,Unknown,-34.083333,-59.033333
Campana, ,Argentina,Rio de la Plata; South Atlantic Ocean,Small,River (Natural),Unknown,Unknown,-34.15,-58.966667
Buenos Aires, ,Argentina,Rio de la Plata; South Atlantic Ocean,Large,Coastal (Breakwater),Unknown,Large,-34.6,-58.366667
La Plata,Eva Peron,Argentina,Rio de la Plata; South Atlantic Ocean,Medium,River (Basins),Unknown,Unknown,-34.833333,-57.883333
Mar Del Plata,Puerto Mar Del Plata,Argentina,South Atlantic Ocean,Small,Coastal (Breakwater),Unknown,Medium,-38.033333,-57.533333
Quequen,Necochea,Argentina,South Atlantic Ocean,Very Small,Coastal (Breakwater),Unknown,Medium,-38.583333,-58.7
Puerto Rosales,Puerto Arroyo Pareja; Puerto Pareja,Argentina,South Atlantic Ocean,Very Small,Coastal (Breakwater),Unknown,Small,-38.933333,-62.066667
Puerto Belgrano,Punta Alta,Argentina,South Atlantic Ocean,Small,Coastal (Breakwater),Unknown,Medium,-38.883333,-62.1
Bahia Blanca, ,Argentina,South Atlantic Ocean,Very Small,Coastal (Natural),Unknown,Unknown,-38.783333,-62.266667
Puerto Ingeniero White, ,Argentina,South Atlantic Ocean,Small,Coastal (Natural),Unknown,Medium,-38.8,-62.266667
Puerto Nacional, ,Argentina,South Atlantic Ocean,Very Small,Coastal (Natural),Unknown,Medium,-38.8,-62.283333
San Blas, ,Argentina,South Atlantic Ocean,Very Small,Coastal (Natural),Unknown,Unknown,-40.566667,-62.233333
Puerto Madryn,Port Madryn,Argentina,South Atlantic Ocean,Small,Coastal (Natural),Unknown,Unknown,-42.766667,-65.033333
Comodoro Rivadavia, ,Argentina,Golfo San Jorge; South Atlantic Ocean,Very Small,Coastal (Breakwater),Unknown,Unknown,-45.866667,-67.466667
Puerto Deseado, ,Argentina,South Atlantic Ocean,Very Small,River (Natural),Unknown,Unknown,-47.75,-65.9
Puerto San Julian,Chokrak,Argentina,South Atlantic Ocean,Very Small,Coastal (Natural),Unknown,Unknown,-49.316667,-67.7
Puerto Santa Cruz, ,Argentina,South Atlantic Ocean,Very Small,River (Natural),Unknown,Unknown,-50.016667,-68.516667
Puerto Gallegos,Rio Gallegos,Argentina,South Atlantic Ocean,Very Small,River (Natural),Unknown,Unknown,-51.616667,-68.966667
San Sebastian Bay, ,Argentina,South Atlantic Ocean,Small,Coastal (Natural),Unknown,Unknown,-53.166667,-68.5
Ushuaia, ,Argentina,Drake Passage; South Atlantic Ocean,Small,Coastal (Natural),Unknown,Unknown,-54.816667,-68.3
Sint Nicolaas Baai,Sint Nicolaashaven; St Nicolass,Aruba,Caribbean Sea; North Atlantic Ocean,Small,Coastal (Breakwater),Unknown,Small,12.433333,-69.916667
Paarden Baai - (Oranjestad), ,Aruba,Caribbean Sea; North Atlantic Ocean,Very Small,Coastal (Breakwater),Unknown,Unknown,12.516667,-70.033333
Thursday Island,Port Kennedy,Australia,Torres Strait; South Pacific Ocean,Small,Coastal (Natural),Unknown,Unknown,-10.583333,142.216667
Cape Flattery Harbor, ,Australia,Coral Sea; South Pacific Ocean,Small,Open Roadstead,Unknown,Unknown,-14.95,145.35
Cairns, ,Australia,Coral Sea; South Pacific Ocean,Small,River (Natural),Unknown,Small,-16.916667,145.783333
Mourilyan Harbour, ,Australia,Coral Sea; South Pacific Ocean,Small,Coastal (Natural),Unknown,Small,-17.6,146.133333
Lucinda, ,Australia,Coral Sea; South Pacific Ocean,Very Small,Open Roadstead,Unknown,Small,-18.516667,146.333333
Townsville, ,Australia,Coral Sea; South Pacific Ocean,Small,Coastal (Breakwater),Unknown,Medium,-19.266667,146.816667
Mackay, ,Australia,Coral Sea; South Pacific Ocean,Small,Coastal (Breakwater),Unknown,Small,-21.116667,149.216667
Hay Point, ,Australia,Coral Sea; South Pacific Ocean,Small,Open Roadstead,Unknown,Small,-21.283333,149.3
Port Alma, ,Australia,Coral Sea; South Pacific Ocean,Very Small,River (Natural),Unknown,Unknown,-23.583333,150.85
Gladstone,Port Curtis,Australia,Coral Sea; South Pacific Ocean,Small,River (Natural),Unknown,Large,-23.85,151.25
Bundaberg, ,Australia,Coral Sea; South Pacific Ocean,Very Small,River (Natural),Unknown,Small,-24.866667,152.35
Brisbane, ,Australia,South Pacific Ocean,Large,River (Natural),Unknown,Unknown,-27.466667,153.033333
Newcastle, ,Australia,Tasman Sea; South Pacific Ocean,Large,Coastal (Breakwater),Unknown,Unknown,-32.916667,151.783333
Sydney, ,Australia,Tasman Sea; South Pacific Ocean,Large,Coastal (Natural),Cargo,Large,-33.866667,151.2
Port Kembla, ,Australia,Tasman Sea; South Pacific Ocean,Medium,Coastal (Breakwater),Unknown,Large,-34.483333,150.916667
Jervis Bay, ,Australia,Tasman Sea; South Pacific Ocean,Very Small,Coastal (Natural),Unknown,Unknown,-35.116667,150.8
Batemans Bay, ,Australia,Tasman Sea; South Pacific Ocean,Very Small,Coastal (Natural),Unknown,Unknown,-35.7,150.166667
Eden, ,Australia,Tasman Sea; South Pacific Ocean,Very Small,Coastal (Breakwater),Unknown,Unknown,-37.066667,149.916667
Welshpool,Port Wellshpool,Australia,Bass Strait; South Pacific Ocean,Very Small,Coastal (Natural),Unknown,Unknown,-38.7,146.466667
Western Port,Hastings,Australia,Bass Strait; South Pacific Ocean,Very Small,Coastal (Natural),Unknown,Small,-38.35,145.233333
Melbourne, ,Australia,Bass Strait; South Pacific Ocean,Large,Coastal (Natural),Unknown,Large,-37.833333,144.966667
Geelong, ,Australia,Bass Strait; South Pacific Ocean,Medium,Coastal (Natural),Cargo,Medium,-38.15,144.366667
Portland, ,Australia,Indian Ocean,Small,Coastal (Breakwater),Unknown,Unknown,-38.333333,141.6
Port Adelaide, ,Australia,Indian Ocean,Medium,River (Natural),Unknown,Large,-34.85,138.5
Ardrossan, ,Australia,Indian Ocean,Very Small,Open Roadstead,Unknown,Unknown,-34.433333,137.916667
Port Giles, ,Australia,Indian Ocean,Very Small,Open Roadstead,Unknown,Unknown,-35.033333,137.766667
Wallaroo, ,Australia,Spencer Gulf; Indian Ocean,Very Small,Open Roadstead,Unknown,Small,-33.933333,137.616667
Port Pirie, ,Australia,Spencer Gulf; Indian Ocean,Small,River (Natural),Unknown,Small,-33.183333,138.016667
Whyalla, ,Australia,Spencer Gulf; Indian Ocean,Small,Coastal (Breakwater),Unknown,Medium,-33.033333,137.583333
Port Bonython,Stony Point,Australia,Spencer Gulf; Indian Ocean,Small,Open Roadstead,Unknown,Unknown,-33.016667,137.766667
Port Lincoln, ,Australia,Spencer Gulf; Indian Ocean,Medium,Coastal (Breakwater),Unknown,Small,-34.716667,135.85
Thevenard, ,Australia,Great Australian Bight; Indian Ocean,Small,Coastal (Natural),Unknown,Unknown,-32.166667,133.65
Esperance, ,Australia,Indian Ocean,Very Small,Coastal (Breakwater),Unknown,Small,-33.866667,121.9
Albany,Princess Royal Harbor,Australia,Indian Ocean,Small,Coastal (Natural),Unknown,Medium,-35.033333,117.883333
Bunbury, ,Australia,Indian Ocean,Small,Coastal (Breakwater),Unknown,Small,-33.316667,115.633333
Fremantle, ,Australia,Indian Ocean,Large,Coastal (Breakwater),Cargo,Medium,-32.05,115.75
Geraldton, ,Australia,Indian Ocean,Very Small,Coastal (Breakwater),Cargo,Small,-28.783333,114.6
Useless Loop, ,Australia,Indian Ocean,Very Small,Open Roadstead,Unknown,Unknown,-26.083333,113.4
Cape Cuvier, ,Australia,Indian Ocean,Very Small,Open Roadstead,Unknown,Unknown,-24.216667,113.383333
Point Murat, ,Australia,Indian Ocean,Very Small,Open Roadstead,Unknown,Unknown,-21.816667,114.183333
Onslow, ,Australia,Indian Ocean,Very Small,Open Roadstead,Unknown,Unknown,-21.65,115.1
Port Walcott,Cossack; Samson Point,Australia,Indian Ocean,Very Small,Open Roadstead,Unknown,Unknown,-20.65,117.183333
Dampier, ,Australia,Indian Ocean,Medium,Coastal (Breakwater),Unknown,Unknown,-20.633333,116.716667
Broome, ,Australia,Indian Ocean,Small,Coastal (Natural),Unknown,Unknown,-17.966667,122.233333
Wyndham, ,Australia,Joseph Bonaparte Gulf; Timor Sea; Indian Ocean,Very Small,River (Natural),Unknown,Unknown,-15.466667,128.1
Darwin, ,Australia,Timor Sea; Indian Ocean,Medium,Coastal (Natural),Cargo,Small,-12.47138889,130.8477778
Milner Bay, ,Australia,Gulf of Carpentaria; Arafura Sea; South Pacific Ocean,Very Small,Open Roadstead,Unknown,Unknown,-13.866667,136.416667
Weipa, ,Australia,Gulf of Carpentaria; Arafura Sea; South Pacific Ocean,Very Small,Coastal (Natural),Unknown,Unknown,-12.666667,141.866667
Gove, ,Australia,Arafura Sea; South Pacific Ocean,Very Small,Open Roadstead,Unknown,Unknown,-12.2,136.7
Karumba, ,Australia,Gulf of Carpentaria; Arafura Sea; South Pacific Ocean,Very Small,River (Natural),Unknown,Unknown,-17.483333,140.833333
Hobart, ,Australia,South Pacific Ocean,Medium,River (Natural),Cargo,Large,-42.883333,147.333333
Port Huon, ,Australia,South Pacific Ocean,Very Small,River (Natural),Unknown,Unknown,-43.166667,146.983333
Dover, ,Australia,South Pacific Ocean,Very Small,Coastal (Natural),Unknown,Unknown,-43.316667,147.033333
Port Latta, ,Australia,Bass Strait; South Pacific Ocean,Very Small,Open Roadstead,Unknown,Small,-40.833333,145.383333
Burnie, ,Australia,Bass Strait; South Pacific Ocean,Small,Coastal (Breakwater),Unknown,Medium,-41.05,145.95
Devonport, ,Australia,Bass Strait; South Pacific Ocean,Small,River (Basins),Unknown,Medium,-41.183333,146.366667
Port Dalrymple, ,Australia,Bass Strait; South Pacific Ocean,Medium,Coastal (Natural),Unknown,Unknown,-41.133333,146.833333
Beauty Point, ,Australia,Bass Strait; South Pacific Ocean,Small,Coastal (Natural),Unknown,Unknown,-41.15,146.816667
Launceston, ,Australia,Bass Strait; South Pacific Ocean,Small,River (Natural),Unknown,Unknown,-41.45,147.116667
Al Manamah, ,Bahrain,Persian Gulf; Indian Ocean,Small,Coastal (Natural),Unknown,Unknown,26.233333,50.583333
Sitrah,Jazirat Sitrah,Bahrain,Persian Gulf; Indian Ocean,Medium,Open Roadstead,Unknown,Unknown,26.166667,50.666667
Mina Salman,Khor Kaliya,Bahrain,Persian Gulf; Indian Ocean,Medium,Coastal (Natural),Unknown,Medium,26.2,50.633333
Khalifa Bin Salman, ,Bahrain,Persian Gulf; Indian Ocean,Medium,Coastal (Breakwater),Unknown,Unknown,26.25,50.75
Mongla,Chalna Bazar,Bangladesh,Bay of Bengal; Indian Ocean,Small,River (Natural),Unknown,Unknown,22.466667,89.6
Chittagong, ,Bangladesh,Bay of Bengal; Indian Ocean,Medium,River (Natural),Unknown,Small,22.316667,91.816667
Bridgetown, ,Barbados,North Atlantic Ocean,Small,Coastal (Breakwater),Unknown,Unknown,13.1,-59.633333
Antwerpen,Antwerp; Anvers,Belgium,North Sea; North Atlantic Ocean,Large,River (Tide Gates),Unknown,Unknown,51.216667,4.4
Bruxelles,Brussels,Belgium,North Sea; North Atlantic Ocean,Small,River (Tide Gates),Unknown,Small,50.866667,4.35
Ghent,Ghent,Belgium,North Sea; North Atlantic Ocean,Medium,Canal or Lake,Unknown,Medium,51.066667,3.733333
Zeebrugge, ,Belgium,North Sea; North Atlantic Ocean,Medium,Coastal (Breakwater),Unknown,Large,51.333333,3.2
Oostende,Ostend,Belgium,North Sea; North Atlantic Ocean,Small,River (Tide Gates),Unknown,Medium,51.233333,2.916667
Nieuwpoort, ,Belgium,North Sea; North Atlantic Ocean,Very Small,Canal or Lake,Unknown,Small,51.133333,2.75
Belize City, ,Belize,Caribbean Sea; North Atlantic Ocean,Small,Open Roadstead,Unknown,Small,17.5,-88.183333
Cotonou,Appi; Kentou; Kotonu,Benin,Bight of Benin; Gulf of Guinea; North Atlantic Ocean,Medium,Coastal (Breakwater),Unknown,Large,6.35,2.433333
St George,Saint George's Harbor,Bermuda,North Atlantic Ocean,Small,Coastal (Natural),Unknown,Medium,32.383333,-64.683333
Ireland Island,Freeport,Bermuda,North Atlantic Ocean,Medium,Coastal (Breakwater),Unknown,Unknown,32.316667,-64.833333
Hamilton, ,Bermuda,North Atlantic Ocean,Small,Coastal (Natural),Unknown,Small,32.3,-64.783333
Porto Santana, ,Brazil,South Atlantic Ocean,Very Small,River (Natural),Unknown,Unknown,-0.05,-51.183333
Belem,Para,Brazil,South Atlantic Ocean,Medium,River (Natural),Unknown,Small,-1.45,-48.5
Vila Do Conde, ,Brazil,South Atlantic Ocean,Very Small,River (Natural),Unknown,Unknown,-1.55,-48.75
Cameta, ,Brazil,South Atlantic Ocean,Very Small,Typhoon Harbor,Unknown,Unknown,-2.25,-49.5
Santarem, ,Brazil,South Atlantic Ocean,Very Small,Typhoon Harbor,Unknown,Unknown,-2.416667,-54.716667
Manaus,Manaos,Brazil,South Atlantic Ocean,Small,River (Natural),Unknown,Small,-3.133333,-60.016667
Itaqui, ,Brazil,South Atlantic Ocean,Small,Coastal (Natural),Unknown,Large,-2.566667,-44.366667
Tutoia,Tutoya,Brazil,South Atlantic Ocean,Very Small,River (Natural),Unknown,Unknown,-2.783333,-42.283333
Camocim, ,Brazil,South Atlantic Ocean,Very Small,River (Natural),Unknown,Unknown,-2.9,-40.833333
Porto De Mucuripe,Ceara; Fortaleza,Brazil,South Atlantic Ocean,Small,Open Roadstead,Unknown,Small,-3.716667,-38.483333
Guamare Oil Terminal, ,Brazil,South Atlantic Ocean,Very Small,Open Roadstead,Unknown,Unknown,-4.866667,-36.283333
Natal, ,Brazil,South Atlantic Ocean,Small,River (Natural),Unknown,Medium,-5.783333,-35.2
Recife,Pernambuco,Brazil,South Atlantic Ocean,Medium,Coastal (Breakwater),Unknown,Medium,-8.05,-34.866667
Porto De Suape, ,Brazil,South Atlantic Ocean,Small,Coastal (Breakwater),Unknown,Small,-8.4,-34.966667
Porto De Maceio, ,Brazil,South Atlantic Ocean,Small,Coastal (Breakwater),Unknown,Large,-9.666667,-35.733333
Port De Aracaju,Carmopolis,Brazil,South Atlantic Ocean,Small,River (Natural),Unknown,Medium,-10.916667,-37.05
Port De Salvador,Bahia Salvador,Brazil,South Atlantic Ocean,Medium,Coastal (Breakwater),Unknown,Medium,-12.966667,-38.516667
Port Of Ilheus,Malhado; Porto De Ilheus; Sao Jorges Dos Ilheus,Brazil,South Atlantic Ocean,Small,Coastal (Breakwater),Unknown,Small,-14.783333,-39.016667
Portocel, ,Brazil,South Atlantic Ocean,Small,Coastal (Breakwater),Unknown,Unknown,-19.85,-40.05
Vitoria,Victoria,Brazil,South Atlantic Ocean,Medium,River (Natural),Unknown,Medium,-20.316667,-40.333333
Tubarao, ,Brazil,South Atlantic Ocean,Large,Coastal (Breakwater),Unknown,Large,-20.283333,-40.25
Dtse / Gegua Oil Terminal, ,Brazil,South Atlantic Ocean,Medium,Open Roadstead,Unknown,Unknown,-22.816667,-43.15
Porto Do Forno,Arraial Do Cabo; Arrail Do Caeo,Brazil,South Atlantic Ocean,Very Small,Coastal (Natural),Unknown,Unknown,-22.966667,-42.016667
Rio De Janeiro, ,Brazil,South Atlantic Ocean,Large,Coastal (Natural),Unknown,Small,-22.9,-43.166667
Niteroi,Nictheroy,Brazil,South Atlantic Ocean,Small,Coastal (Natural),Unknown,Small,-22.883333,-43.116667
Guaiba Island Terminal,Sepetiba Terminal,Brazil,South Atlantic Ocean,Small,Coastal (Natural),Unknown,Small,-23.016667,-44.033333
Angra Dos Reis, ,Brazil,South Atlantic Ocean,Small,Coastal (Natural),Unknown,Small,-23.016667,-44.316667
Gebig, ,Brazil,South Atlantic Ocean,Small,Open Roadstead,Unknown,Unknown,-23.05,-44.216667
Sao Sebastiao, ,Brazil,South Atlantic Ocean,Small,Open Roadstead,Unknown,Unknown,-23.8,-45.4
Santos, ,Brazil,South Atlantic Ocean,Large,Coastal (Natural),Unknown,Large,-23.95,-46.3
Paranagua, ,Brazil,South Atlantic Ocean,Small,Coastal (Natural),Unknown,Medium,-25.5,-48.516667
Sao Francisco, ,Brazil,South Atlantic Ocean,Small,River (Natural),Unknown,Small,-26.25,-48.633333
Itajai, ,Brazil,South Atlantic Ocean,Medium,River (Natural),Unknown,Unknown,-26.916667,-48.633333
Imbituba, ,Brazil,South Atlantic Ocean,Very Small,Coastal (Natural),Unknown,Small,-28.233333,-48.666667
Tramandai,Maritimo Almirande; Tranmandai,Brazil,South Atlantic Ocean,Small,Open Roadstead,Unknown,Small,-29.983333,-50.133333
Rio Grande,San Pedro Do Sul; Sao Pedro Do Sul,Brazil,South Atlantic Ocean,Large,River (Natural),Unknown,Medium,-32.05,-52.083333
Porto Alegre, ,Brazil,South Atlantic Ocean,Medium,River (Natural),Unknown,Small,-30.033333,-51.233333
Diego Garcia, ,British Indian Ocean Territory,Indian Ocean,Very Small,Coastal (Breakwater),Unknown,Unknown,-7.35,72.466667
Road Harbor, ,British Virgin Islands,Caribbean Sea; North Atlantic Ocean,Medium,Coastal (Natural),Unknown,Small,18.416667,-64.616667
Muara Harbor,Brooketon,Brunei,South China Sea; North Pacific Ocean,Small,Coastal (Natural),Unknown,Unknown,5.033333,115.066667
Bandar Seri Begawan, ,Brunei,South China Sea; North Pacific Ocean,Small,River (Natural),Unknown,Unknown,4.883333,114.883333
Lumut, ,Brunei,South China Sea; North Pacific Ocean,Very Small,Open Roadstead,Unknown,Unknown,4.716667,114.45
Burgas,Burghaz; Druiba,Bulgaria,Black Sea; North Atlantic Ocean,Small,Coastal (Breakwater),Unknown,Large,42.483333,27.483333
Varna,Stalin,Bulgaria,Black Sea; North Atlantic Ocean,Large,Coastal (Breakwater),Unknown,Large,43.183333,27.966667
Bassein, ,Burma,Andaman Sea; Indian Ocean,Small,River (Natural),Unknown,Small,16.783333,94.733333
Rangoon, ,Burma,Andaman Sea; Indian Ocean,Small,River (Natural),Unknown,Medium,16.766667,96.166667
Moulmein Harbor, ,Burma,Andaman Sea; Indian Ocean,Small,River (Natural),Unknown,Small,16.483333,97.616667
Mergui, ,Burma,Andaman Sea; Indian Ocean,Small,River (Natural),Unknown,Unknown,12.433333,98.6
Porto Grande,Mindelo,Cabo Verde,North Atlantic Ocean,Very Small,Coastal (Natural),Unknown,Unknown,16.883333,-25
Porto Da Praia, ,Cabo Verde,North Atlantic Ocean,Small,Coastal (Breakwater),Unknown,Unknown,14.916667,-23.516667
Kampong Saom,Krong Preah Sihanouk; Sihanoukville,Cambodia,Gulf of Thailand; South China Sea; North Pacific Ocean,Medium,Coastal (Breakwater),Unknown,Small,10.633333,103.5
Phsar Ream,Ream,Cambodia,Gulf of Thailand; South China Sea; North Pacific Ocean,Very Small,Coastal (Natural),Unknown,Unknown,10.5,103.6
Douala,Duala,Cameroon,Gulf of Guinea; North Atlantic Ocean,Medium,River (Natural),Unknown,Large,4.05,9.683333
Kole Oil Terminal, ,Cameroon,Gulf of Guinea; North Atlantic Ocean,Very Small,Open Roadstead,Unknown,Unknown,4.25,8.55
Moudi Marine Terminal, ,Cameroon,Gulf of Guinea; North Atlantic Ocean,Very Small,Open Roadstead,Unknown,Unknown,4.116667,8.483333
Ebome Marine Terminal, ,Cameroon,Gulf of Guinea; North Atlantic Ocean,Very Small,Open Roadstead,Unknown,Unknown,2.8,9.816667
Kome Kribi 1 Marine Terminal, ,Cameroon,Gulf of Guinea; North Atlantic Ocean,Very Small,Open Roadstead,Unknown,Unknown,2.916667,9.8
Pond Inlet, ,Canada,Northwest Passages; Arctic Ocean,Medium,Open Roadstead,Unknown,Unknown,72.75,-76.75
Padloping Island, ,Canada,Baffin Bay; Arctic Ocean,Very Small,Coastal (Natural),Unknown,Unknown,67.033333,-62.733333
Pangnirtung, ,Canada,Cumberland Sound; Labrador Sea; North Atlantic Ocean,Very Small,Coastal (Natural),Unknown,Unknown,66.133333,-65.75
Catalina Harbor, ,Canada,North Atlantic Ocean,Small,Coastal (Natural),Unknown,Unknown,48.5,-53.083333
Port Union, ,Canada,North Atlantic Ocean,Very Small,Coastal (Natural),Unknown,Unknown,48.5,-53.083333
Clarenville, ,Canada,North Atlantic Ocean,Small,Coastal (Natural),Unknown,Unknown,48.15,-53.95
St John's, ,Canada,North Atlantic Ocean,Small,Coastal (Natural),Unknown,Large,47.566667,-52.7
Argentia, ,Canada,North Atlantic Ocean,Medium,Coastal (Natural),Unknown,Unknown,47.3,-53.983333
Come By Chance Harbor, ,Canada,North Atlantic Ocean,Small,Open Roadstead,Unknown,Unknown,47.8,-54.016667
Port Aux Basques, ,Canada,North Atlantic Ocean,Small,Coastal (Natural),Unknown,Unknown,47.566667,-59.133333
St George's, ,Canada,Gulf of Saint Lawrence; North Atlantic Ocean,Small,Coastal (Natural),Unknown,Unknown,48.45,-58.45
Corner Brook, ,Canada,Gulf of Saint Lawrence; North Atlantic Ocean,Small,Coastal (Natural),Unknown,Unknown,48.95,-57.95
Blanc Sablon, ,Canada,Gulf of Saint Lawrence; North Atlantic Ocean,Very Small,River (Natural),Unknown,Unknown,51.416667,-57.133333
Havre St Pierre, ,Canada,Gulf of Saint Lawrence; North Atlantic Ocean,Very Small,Coastal (Natural),Unknown,Unknown,50.233333,-63.6
Sept Iles,Seven Islands,Canada,Gulf of Saint Lawrence; North Atlantic Ocean,Medium,River (Natural),Unknown,Unknown,50.2,-66.383333
Pointe Noire, ,Canada,Gulf of Saint Lawrence; North Atlantic Ocean,Small,River (Natural),Unknown,Unknown,50.166667,-66.483333
Port Cartier, ,Canada,Gulf of Saint Lawrence; North Atlantic Ocean,Very Small,River (Natural),Unknown,Unknown,50.033333,-66.783333
Matane, ,Canada,Gulf of Saint Lawrence; North Atlantic Ocean,Very Small,River (Natural),Unknown,Unknown,48.85,-67.533333
Baie Comeau,Baie Du Moulin,Canada,Gulf of Saint Lawrence; North Atlantic Ocean,Small,River (Natural),Unknown,Unknown,49.233333,-68.133333
Rimouski, ,Canada,Gulf of Saint Lawrence; North Atlantic Ocean,Small,River (Natural),Unknown,Unknown,48.45,-68.516667
La Baie (Port Alfred),Port Alfred,Canada,Gulf of Saint Lawrence; North Atlantic Ocean,Small,River (Natural),Unknown,Unknown,48.333333,-70.883333
Chicoutimi (Port Saguenay),Port Saguenay,Canada,Gulf of Saint Lawrence; North Atlantic Ocean,Small,River (Natural),Unknown,Unknown,48.433333,-71.066667
Riviere Du Loup,Fraserville,Canada,Gulf of Saint Lawrence; North Atlantic Ocean,Small,River (Natural),Unknown,Unknown,47.833333,-69.516667
Quebec, ,Canada,Gulf of Saint Lawrence; North Atlantic Ocean,Medium,River (Natural),Unknown,Unknown,46.816667,-71.216667
Port De Becancour, ,Canada,Gulf of Saint Lawrence; North Atlantic Ocean,Very Small,River (Natural),Unknown,Unknown,46.4,-72.383333
Trois Rivieres,Three Rivers,Canada,Gulf of Saint Lawrence; North Atlantic Ocean,Medium,River (Natural),Unknown,Unknown,46.35,-72.55
Sorel, ,Canada,Gulf of Saint Lawrence; North Atlantic Ocean,Small,River (Natural),Unknown,Large,46.05,-73.116667
Montreal, ,Canada,Lake Ontario; Great Lakes,Large,River (Natural),Unknown,Unknown,45.516667,-73.55
Carillon, ,Canada,Lake Ontario; Great Lakes,Very Small,River (Natural),Unknown,Unknown,45.566667,-74.366667
Masson, ,Canada,Lake Ontario; Great Lakes,Very Small,River (Natural),Unknown,Unknown,45.533333,-75.416667
Ottawa, ,Canada,Lake Ontario; Great Lakes,Small,River (Natural),Unknown,Unknown,45.433333,-75.7
Beauharnois, ,Canada,Lake Ontario; Great Lakes,Very Small,Canal or Lake,Unknown,Unknown,45.316667,-73.883333
Lower Lakes Terminal,Johnstown,Canada,Lake Ontario; Great Lakes,Small,River (Natural),Unknown,Small,44.733333,-75.466667
Rockport, ,Canada,Lake Ontario; Great Lakes,Very Small,River (Natural),Unknown,Small,44.383333,-75.933333
Gananoque, ,Canada,Lake Ontario; Great Lakes,Very Small,River (Natural),Unknown,Unknown,44.333333,-76.166667
Kingston, ,Canada,Lake Ontario; Great Lakes,Very Small,Coastal (Natural),Unknown,Medium,44.233333,-76.5
Cobourg, ,Canada,Lake Ontario; Great Lakes,Small,Coastal (Breakwater),Unknown,Unknown,43.95,-78.166667
Oshawa, ,Canada,Lake Ontario; Great Lakes,Small,Coastal (Breakwater),Unknown,Unknown,43.866667,-78.816667
Toronto, ,Canada,Lake Ontario; Great Lakes,Medium,Coastal (Natural),Unknown,Unknown,43.616667,-79.383333
Port Credit, ,Canada,Lake Ontario; Great Lakes,Very Small,Coastal (Breakwater),Unknown,Small,43.55,-79.583333
Clarkson,Clarkson Harbor,Canada,Lake Ontario; Great Lakes,Very Small,Open Roadstead,Unknown,Unknown,43.5,-79.6
Hamilton, ,Canada,Lake Ontario; Great Lakes,Medium,Coastal (Natural),Unknown,Small,43.25,-79.85
Port Weller, ,Canada,Lake Ontario; Great Lakes,Small,River (Tide Gates),Unknown,Unknown,43.233333,-79.216667
St Catherine, ,Canada,Lake Ontario; Great Lakes,Very Small,Canal or Lake,Unknown,Unknown,43.183333,-79.283333
Niagara, ,Canada,Lake Ontario; Great Lakes,Very Small,River (Natural),Unknown,Unknown,43.25,-79.066667
Queenston, ,Canada,Lake Erie; Great Lakes,Very Small,River (Natural),Unknown,Unknown,43.166667,-79.066667
Port Colborne, ,Canada,Lake Erie; Great Lakes,Small,Canal or Lake,Unknown,Unknown,42.883333,-79.25
Port Maitland, ,Canada,Lake Erie; Great Lakes,Small,River (Basins),Unknown,Unknown,42.85,-79.583333
Port Stanley, ,Canada,Lake Erie; Great Lakes,Very Small,River (Natural),Unknown,Small,42.666667,-81.2
Rondeau,Erieau,Canada,Lake Erie; Great Lakes,Small,Coastal (Natural),Unknown,Small,42.266667,-81.9
Leamington, ,Canada,Lake Erie; Great Lakes,Very Small,Open Roadstead,Unknown,Unknown,42.033333,-82.6
Amherstburg, ,Canada,Lake Erie; Great Lakes,Small,River (Natural),Unknown,Unknown,42.1,-83.1
Windsor, ,Canada,Lake Erie; Great Lakes,Medium,River (Natural),Unknown,Unknown,42.316667,-83.033333
Walpole Island, ,Canada,Lake Saint Clair; Great Lakes,Very Small,River (Natural),Unknown,Unknown,42.616667,-82.516667
Sombra, ,Canada,Lake Saint Clair; Great Lakes,Very Small,River (Natural),Unknown,Unknown,42.716667,-82.483333
Courtright, ,Canada,Lake Saint Clair; Great Lakes,Very Small,River (Natural),Unknown,Unknown,42.816667,-82.466667
Sarnia, ,Canada,Lake Saint Clair; Great Lakes,Small,River (Natural),Unknown,Small,42.983333,-82.416667
Point Edward, ,Canada,Lake Huron; Great Lakes,Small,River (Natural),Unknown,Unknown,43,-82.416667
Goderich, ,Canada,Lake Huron; Great Lakes,Small,Coastal (Breakwater),Unknown,Unknown,43.75,-81.733333
Tobermory, ,Canada,Lake Huron; Great Lakes,Very Small,Coastal (Natural),Unknown,Unknown,45.266667,-81.666667
Wiarton, ,Canada,Lake Huron; Great Lakes,Very Small,Coastal (Natural),Unknown,Medium,44.75,-81.133333
Owen Sound, ,Canada,Lake Huron; Great Lakes,Small,River (Natural),Unknown,Small,44.583333,-80.933333
Meaford, ,Canada,Lake Huron; Great Lakes,Very Small,Coastal (Breakwater),Unknown,Unknown,44.616667,-80.6
Penetanguishene, ,Canada,Lake Huron; Great Lakes,Very Small,Coastal (Natural),Unknown,Small,44.766667,-79.933333
Midland, ,Canada,Lake Huron; Great Lakes,Small,Coastal (Natural),Unknown,Small,44.75,-79.916667
Tiffin, ,Canada,Lake Huron; Great Lakes,Very Small,Coastal (Natural),Unknown,Unknown,44.75,-79.85
Port Mcnicoll, ,Canada,Lake Huron; Great Lakes,Very Small,Coastal (Natural),Unknown,Small,44.75,-79.8
Depot Harbour, ,Canada,Lake Huron; Great Lakes,Very Small,Coastal (Natural),Unknown,Unknown,45.316667,-80.1
Parry Sound, ,Canada,Lake Huron; Great Lakes,Small,Coastal (Natural),Unknown,Medium,45.333333,-80.033333
Key Harbour, ,Canada,Lake Huron; Great Lakes,Very Small,Coastal (Natural),Unknown,Unknown,45.883333,-80.75
Little Current, ,Canada,Lake Huron; Great Lakes,Small,Coastal (Natural),Unknown,Medium,45.983333,-81.933333
Honora, ,Canada,Lake Huron; Great Lakes,Very Small,Coastal (Natural),Unknown,Unknown,45.866667,-82.166667
Kagawong, ,Canada,Lake Huron; Great Lakes,Very Small,Coastal (Natural),Unknown,Unknown,45.916667,-82.25
Gore Bay, ,Canada,Lake Huron; Great Lakes,Very Small,Coastal (Natural),Unknown,Unknown,45.916667,-82.466667
Meldrum Bay, ,Canada,Lake Huron; Great Lakes,Very Small,Coastal (Natural),Unknown,Unknown,45.933333,-83.116667
Cockburn, ,Canada,Lake Huron; Great Lakes,Very Small,Coastal (Natural),Unknown,Unknown,45.95,-83.316667
Thessalon, ,Canada,Lake Huron; Great Lakes,Very Small,Coastal (Breakwater),Unknown,Unknown,46.25,-83.566667
Hilton,Marksville,Canada,Lake Huron; Great Lakes,Very Small,Coastal (Natural),Unknown,Unknown,46.25,-83.883333
Richards Landing, ,Canada,Lake Huron; Great Lakes,Very Small,Coastal (Natural),Unknown,Unknown,46.3,-84.033333
Sault Ste Marie, ,Canada,Lake Superior; Great Lakes,Small,River (Natural),Unknown,Unknown,46.516667,-84.35
Goulais Bay, ,Canada,Lake Superior; Great Lakes,Very Small,Coastal (Natural),Unknown,Unknown,46.733333,-84.5
Batchawana Bay, ,Canada,Lake Superior; Great Lakes,Very Small,Coastal (Natural),Unknown,Unknown,46.916667,-84.6
Gargantua, ,Canada,Lake Superior; Great Lakes,Very Small,Coastal (Natural),Unknown,Unknown,47.566667,-84.966667
Michipicoten, ,Canada,Lake Superior; Great Lakes,Very Small,Coastal (Natural),Unknown,Unknown,47.966667,-84.9
Quebec Harbour, ,Canada,Lake Superior; Great Lakes,Very Small,Coastal (Natural),Unknown,Unknown,47.7,-85.8
Heron Bay, ,Canada,Lake Superior; Great Lakes,Very Small,Coastal (Natural),Unknown,Unknown,48.65,-86.316667
Thunder Bay,Fort William; Port Arthur,Canada,Lake Superior; Great Lakes,Medium,Coastal (Breakwater),Unknown,Unknown,48.4,-89.233333
Gaspe, ,Canada,Gulf of Saint Lawrence; North Atlantic Ocean,Small,Coastal (Natural),Unknown,Unknown,48.833333,-64.483333
Douglastown, ,Canada,Gulf of Saint Lawrence; North Atlantic Ocean,Very Small,Open Roadstead,Unknown,Unknown,48.766667,-64.383333
Dalhousie, ,Canada,Gulf of Saint Lawrence; North Atlantic Ocean,Small,Open Roadstead,Unknown,Unknown,48.066667,-66.366667
Caraquet, ,Canada,Gulf of Saint Lawrence; North Atlantic Ocean,Small,Coastal (Natural),Unknown,Unknown,47.8,-64.933333
Georgetown, ,Canada,Gulf of Saint Lawrence; North Atlantic Ocean,Small,River (Natural),Unknown,Small,46.183333,-62.533333
Charlottetown, ,Canada,Gulf of Saint Lawrence; North Atlantic Ocean,Small,Coastal (Natural),Unknown,Unknown,46.233333,-63.133333
Summerside, ,Canada,Gulf of Saint Lawrence; North Atlantic Ocean,Small,Coastal (Natural),Unknown,Unknown,46.4,-63.783333
Pictou, ,Canada,Gulf of Saint Lawrence; North Atlantic Ocean,Small,Coastal (Natural),Unknown,Large,45.666667,-62.716667
Port Hawkesbury, ,Canada,North Atlantic Ocean,Very Small,Coastal (Natural),Unknown,Medium,45.616667,-61.366667
Port Hastings, ,Canada,North Atlantic Ocean,Very Small,Coastal (Natural),Unknown,Unknown,45.65,-61.4
Whycocomagh, ,Canada,North Atlantic Ocean,Very Small,Coastal (Natural),Unknown,Unknown,45.966667,-61.133333
Grand Narrows, ,Canada,North Atlantic Ocean,Very Small,Coastal (Natural),Unknown,Unknown,45.95,-60.783333
Little Bras D Or, ,Canada,North Atlantic Ocean,Very Small,Coastal (Natural),Unknown,Unknown,46.25,-60.3
North Sydney, ,Canada,North Atlantic Ocean,Small,Coastal (Natural),Unknown,Medium,46.216667,-60.25
Sydney, ,Canada,North Atlantic Ocean,Medium,Coastal (Natural),Unknown,Large,46.15,-60.2
Louisburg, ,Canada,North Atlantic Ocean,Very Small,Coastal (Natural),Unknown,Unknown,45.916667,-59.966667
Goldsboro, ,Canada,North Atlantic Ocean,Very Small,Coastal (Natural),Unknown,Unknown,45.183333,-61.65
Stormont, ,Canada,North Atlantic Ocean,Very Small,Coastal (Natural),Unknown,Unknown,45.216667,-61.716667
Halifax, ,Canada,North Atlantic Ocean,Large,Coastal (Natural),Unknown,Large,44.65,-63.583333
Liverpool (Brooklyn),Brooklyn,Canada,North Atlantic Ocean,Small,Coastal (Natural),Unknown,Large,44.033333,-64.65
Digby, ,Canada,Bay of Fundy; North Atlantic Ocean,Small,Coastal (Natural),Unknown,Unknown,44.616667,-65.766667
St John, ,Canada,Bay of Fundy; North Atlantic Ocean,Medium,Coastal (Breakwater),Unknown,Unknown,45.266667,-66.05
Port Bayside Nb, ,Canada,Bay of Fundy; North Atlantic Ocean,Very Small,River (Natural),Unknown,Unknown,45.15,-67.133333
Steveston, ,Canada,Alaska-Canada coastal waters; North Pacific Ocean,Very Small,River (Natural),Unknown,Unknown,49.133333,-123.183333
New Westminster, ,Canada,Alaska-Canada coastal waters; North Pacific Ocean,Medium,River (Natural),Unknown,Medium,49.2,-122.916667
Fraser Mills, ,Canada,Alaska-Canada coastal waters; North Pacific Ocean,Very Small,River (Natural),Unknown,Unknown,49.22414722,-122.8559667
Port Coquitlam, ,Canada,Alaska-Canada coastal waters; North Pacific Ocean,Very Small,River (Natural),Unknown,Medium,49.23333333,-122.7666667
Mission City, ,Canada,Alaska-Canada coastal waters; North Pacific Ocean,Very Small,River (Natural),Unknown,Unknown,49.14638889,-122.2586111
Vancouver, ,Canada,Alaska-Canada coastal waters; North Pacific Ocean,Large,Coastal (Natural),Unknown,Large,49.283333,-123.116667
Squamish, ,Canada,Alaska-Canada coastal waters; North Pacific Ocean,Very Small,River (Natural),Unknown,Medium,49.683333,-123.15
Duncan Bay, ,Canada,Alaska-Canada coastal waters; North Pacific Ocean,Very Small,Coastal (Natural),Unknown,Unknown,50.066667,-125.283333
Comox Harbor, ,Canada,Alaska-Canada coastal waters; North Pacific Ocean,Small,Coastal (Natural),Unknown,Unknown,49.666667,-124.916667
Nanoose Harbor, ,Canada,Alaska-Canada coastal waters; North Pacific Ocean,Very Small,Coastal (Natural),Unknown,Unknown,49.266667,-124.15
Nanaimo, ,Canada,Alaska-Canada coastal waters; North Pacific Ocean,Small,Coastal (Natural),Unknown,Small,49.166667,-123.933333
Harmac, ,Canada,Alaska-Canada coastal waters; North Pacific Ocean,Very Small,Coastal (Natural),Unknown,Unknown,49.133333,-123.85
Chemainus, ,Canada,Alaska-Canada coastal waters; North Pacific Ocean,Very Small,Coastal (Natural),Unknown,Unknown,48.933333,-123.716667
Crofton, ,Canada,Alaska-Canada coastal waters; North Pacific Ocean,Very Small,Coastal (Natural),Unknown,Unknown,48.866667,-123.633333
Cowichan Bay, ,Canada,Alaska-Canada coastal waters; North Pacific Ocean,Very Small,Coastal (Natural),Unknown,Unknown,48.75,-123.616667
Ganges, ,Canada,Alaska-Canada coastal waters; North Pacific Ocean,Very Small,Coastal (Natural),Unknown,Small,48.85,-123.483333
Lyall Harbor, ,Canada,Alaska-Canada coastal waters; North Pacific Ocean,Very Small,Coastal (Natural),Unknown,Unknown,48.8,-123.2
Hope Bay, ,Canada,Alaska-Canada coastal waters; North Pacific Ocean,Very Small,Coastal (Natural),Unknown,Unknown,48.8,-123.283333
Sidney, ,Canada,Alaska-Canada coastal waters; North Pacific Ocean,Very Small,Coastal (Natural),Unknown,Small,48.65,-123.383333
Bamberton, ,Canada,Alaska-Canada coastal waters; North Pacific Ocean,Very Small,Coastal (Natural),Unknown,Unknown,48.55,-123.516667
Victoria Harbor, ,Canada,Alaska-Canada coastal waters; North Pacific Ocean,Medium,Coastal (Breakwater),Unknown,Medium,48.433333,-123.383333
Esquimalt Harbor, ,Canada,Alaska-Canada coastal waters; North Pacific Ocean,Small,Coastal (Natural),Unknown,Large,48.433333,-123.433333
Port San Juan, ,Canada,Alaska-Canada coastal waters; North Pacific Ocean,Very Small,Coastal (Natural),Unknown,Unknown,48.55,-124.433333
Port Alberni, ,Canada,Alaska-Canada coastal waters; North Pacific Ocean,Small,River (Natural),Unknown,Small,49.233333,-124.816667
Ucluelet, ,Canada,North Pacific Ocean,Very Small,Coastal (Natural),Unknown,Small,48.95,-125.55
Clayoquot, ,Canada,North Pacific Ocean,Very Small,Coastal (Natural),Unknown,Unknown,49.15,-125.916667
Tahsis, ,Canada,North Pacific Ocean,Very Small,Coastal (Natural),Unknown,Small,49.916667,-126.666667
Port Alice, ,Canada,North Pacific Ocean,Small,Coastal (Natural),Unknown,Unknown,50.383333,-127.45
Coal Harbor, ,Canada,North Pacific Ocean,Very Small,Coastal (Natural),Unknown,Small,50.6,-127.583333
Port Hardy, ,Canada,Alaska-Canada coastal waters; North Pacific Ocean,Very Small,Coastal (Natural),Unknown,Unknown,50.716667,-127.483333
Sointula, ,Canada,Alaska-Canada coastal waters; North Pacific Ocean,Very Small,Coastal (Natural),Unknown,Unknown,50.633333,-127.016667
Alert Bay, ,Canada,Alaska-Canada coastal waters; North Pacific Ocean,Very Small,Coastal (Natural),Unknown,Unknown,50.583333,-126.933333
Port Mcneill, ,Canada,Alaska-Canada coastal waters; North Pacific Ocean,Very Small,Coastal (Natural),Unknown,Unknown,50.583333,-127.083333
Bella Coola, ,Canada,Alaska-Canada coastal waters; North Pacific Ocean,Very Small,Coastal (Natural),Unknown,Unknown,52.366667,-126.8
Bella Bella, ,Canada,Alaska-Canada coastal waters; North Pacific Ocean,Very Small,Coastal (Natural),Unknown,Unknown,52.166667,-128.15
Klemtu, ,Canada,Alaska-Canada coastal waters; North Pacific Ocean,Very Small,Coastal (Natural),Unknown,Unknown,52.6,-128.516667
Kemano Bay, ,Canada,Alaska-Canada coastal waters; North Pacific Ocean,Very Small,River (Basins),Unknown,Unknown,53.483333,-128.133333
Kitimat, ,Canada,Alaska-Canada coastal waters; North Pacific Ocean,Small,Coastal (Natural),Unknown,Unknown,54,-128.683333
Porpoise Harbor, ,Canada,Alaska-Canada coastal waters; North Pacific Ocean,Very Small,Coastal (Natural),Unknown,Unknown,54.216667,-130.283333
Prince Rupert, ,Canada,Alaska-Canada coastal waters; North Pacific Ocean,Medium,Coastal (Natural),Unknown,Small,54.316667,-130.333333
Port Simpson, ,Canada,Alaska-Canada coastal waters; North Pacific Ocean,Very Small,Coastal (Natural),Unknown,Unknown,54.566667,-130.433333
Stewart, ,Canada,Alaska-Canada coastal waters; North Pacific Ocean,Very Small,Coastal (Natural),Unknown,Unknown,55.933333,-130
Masset Harbor, ,Canada,Alaska-Canada coastal waters; North Pacific Ocean,Very Small,Coastal (Natural),Unknown,Unknown,54.016667,-132.15
Port Clements, ,Canada,Alaska-Canada coastal waters; North Pacific Ocean,Very Small,Coastal (Natural),Unknown,Unknown,53.683333,-132.183333
Queen Charlotte, ,Canada,Alaska-Canada coastal waters; North Pacific Ocean,Very Small,Coastal (Natural),Unknown,Unknown,53.25,-132.083333
Alliford Bay, ,Canada,Alaska-Canada coastal waters; North Pacific Ocean,Very Small,Coastal (Natural),Unknown,Unknown,53.216667,-131.983333
Police Point, ,Canada,Amundsen Gulf; Northwest Passages; Arctic Ocean,Very Small,Coastal (Natural),Unknown,Unknown,70.183333,-124.75
Pearce Point, ,Canada,Amundsen Gulf; Northwest Passages; Arctic Ocean,Very Small,Coastal (Natural),Unknown,Unknown,69.816667,-122.75
Tysoe Point, ,Canada,Amundsen Gulf; Northwest Passages; Arctic Ocean,Very Small,Coastal (Natural),Unknown,Unknown,69.6,-120.75
Cape Young, ,Canada,Northwest Passages; Arctic Ocean,Very Small,Open Roadstead,Unknown,Unknown,68.933333,-116.933333
Bernard Harbor, ,Canada,Northwest Passages; Arctic Ocean,Small,Coastal (Natural),Unknown,Unknown,68.783333,-114.766667
Lady Franklin Point, ,Canada,Northwest Passages; Arctic Ocean,Very Small,Coastal (Natural),Unknown,Unknown,68.483333,-113.266667
Coppermine,Coronation; Kogluktok,Canada,Northwest Passages; Arctic Ocean,Very Small,River (Natural),Unknown,Unknown,67.8,-115.05
Oranjestad,Orange Baai; Orange Stad,Caribbean Netherlands,Caribbean Sea; North Atlantic Ocean,Small,Open Roadstead,Unknown,Unknown,17.483333,-62.983333
Georgetown, ,Cayman Islands,Caribbean Sea; North Atlantic Ocean,Very Small,Open Roadstead,Unknown,Unknown,19.3,-81.383333
Cayman Brac, ,Cayman Islands,Caribbean Sea; North Atlantic Ocean,Very Small,Open Roadstead,Unknown,Unknown,19.75,-79.75
Puerto Williams, ,Chile,Drake Passage; South Atlantic Ocean,Very Small,Open Roadstead,Unknown,Unknown,-54.933333,-67.6
Puerto Sara, ,Chile,South Pacific Ocean,Very Small,Coastal (Natural),Unknown,Unknown,-52.633333,-70.2
Rada Punta Arenas,Magallanes,Chile,South Pacific Ocean,Small,Open Roadstead,Unknown,Small,-53.166667,-70.9
Port San Juan De La Juan,Port Famine; Puerto Famine,Chile,South Pacific Ocean,Very Small,Coastal (Natural),Unknown,Unknown,-53.633333,-70.916667
Bahia Harris,Harriss Bay,Chile,South Pacific Ocean,Very Small,Coastal (Natural),Unknown,Unknown,-53.85,-70.45
Puerto Yartou,Port Yartou; Port Yartow,Chile,South Pacific Ocean,Very Small,Coastal (Natural),Unknown,Unknown,-53.883333,-70.15
Caleta Mina Elena,Mina Elena,Chile,South Pacific Ocean,Very Small,Coastal (Natural),Unknown,Unknown,-52.683333,-71.9
Puerto Natales, ,Chile,South Pacific Ocean,Very Small,Open Roadstead,Unknown,Unknown,-51.716667,-72.566667
Puerto Chacabuco, ,Chile,South Pacific Ocean,Very Small,River (Natural),Unknown,Unknown,-45.466667,-72.833333
Puerto Castro, ,Chile,South Pacific Ocean,Very Small,Coastal (Natural),Unknown,Unknown,-42.483333,-73.766667
Puerto Quemchi, ,Chile,South Pacific Ocean,Very Small,Coastal (Natural),Unknown,Unknown,-42.15,-73.483333
Puerto Montt, ,Chile,South Pacific Ocean,Small,Coastal (Natural),Unknown,Unknown,-41.483333,-72.966667
Puerto De Corral, ,Chile,South Pacific Ocean,Very Small,Coastal (Natural),Unknown,Small,-39.866667,-73.433333
Bahia De Valdivia, ,Chile,South Pacific Ocean,Small,River (Natural),Unknown,Small,-39.8,-73.25
Lota, ,Chile,South Pacific Ocean,Very Small,Coastal (Natural),Unknown,Small,-37.1,-73.15
Coronel, ,Chile,South Pacific Ocean,Small,Coastal (Natural),Unknown,Unknown,-37.033333,-73.166667
Bahia San Vicente, ,Chile,South Pacific Ocean,Very Small,Coastal (Natural),Unknown,Medium,-36.733333,-73.166667
Talcahuano, ,Chile,South Pacific Ocean,Small,Coastal (Natural),Unknown,Medium,-36.7,-73.1
Lirquen, ,Chile,South Pacific Ocean,Very Small,Coastal (Natural),Unknown,Medium,-36.716667,-72.983333
Penco,Tome,Chile,South Pacific Ocean,Very Small,Coastal (Natural),Unknown,Unknown,-36.716667,-73
Puerto San Antonio, ,Chile,South Pacific Ocean,Small,Coastal (Breakwater),Unknown,Medium,-33.583333,-71.616667
Bahia De Valparaiso, ,Chile,South Pacific Ocean,Medium,Coastal (Breakwater),Unknown,Unknown,-33.033333,-71.616667
Bahia Quintero (Ventanas), ,Chile,South Pacific Ocean,Very Small,Open Roadstead,Unknown,Unknown,-32.766667,-71.533333
Bahia Herradura Guayacan, ,Chile,South Pacific Ocean,Very Small,Open Roadstead,Unknown,Unknown,-29.966667,-71.366667
Coquimbo, ,Chile,South Pacific Ocean,Very Small,Coastal (Natural),Unknown,Unknown,-29.95,-71.333333
Huasco, ,Chile,South Pacific Ocean,Very Small,Open Roadstead,Unknown,Small,-28.466667,-71.25
Puerto Caldera, ,Chile,South Pacific Ocean,Very Small,Coastal (Natural),Unknown,Small,-27.05,-70.833333
Puerto Calderilla, ,Chile,South Pacific Ocean,Very Small,Coastal (Natural),Unknown,Unknown,-27.083333,-70.866667
Puerto Chanaral,Chanaral De Las Animas,Chile,South Pacific Ocean,Very Small,Coastal (Natural),Unknown,Small,-26.35,-70.65
Taltal, ,Chile,South Pacific Ocean,Very Small,Coastal (Natural),Unknown,Small,-25.4,-70.483333
Antofagasta,Mejillones,Chile,South Pacific Ocean,Medium,Coastal (Breakwater),Unknown,Medium,-23.65,-70.416667
Mejillones, ,Chile,South Pacific Ocean,Small,Coastal (Natural),Unknown,Unknown,-23.1,-70.466667
Caleta Patillos, ,Chile,South Pacific Ocean,Very Small,Coastal (Natural),Unknown,Unknown,-20.733333,-70.2
Tocopilla, ,Chile,South Pacific Ocean,Small,Open Roadstead,Unknown,Small,-22.083333,-70.233333
Iquique, ,Chile,South Pacific Ocean,Small,Coastal (Breakwater),Unknown,Medium,-20.2,-70.166667
Rada De Arica, ,Chile,South Pacific Ocean,Small,Open Roadstead,Unknown,Small,-18.466667,-70.333333
Fang-Cheng, ,China,Gulf of Tonkin; South China Sea; North Pacific Ocean,Medium,River (Natural),Unknown,Unknown,21.75,108.35
Beihai,Pakho; Pakhoi,China,Gulf of Tonkin; South China Sea; North Pacific Ocean,Very Small,Open Roadstead,Unknown,Unknown,21.483333,109.066667
Haikou,Hoihow,China,South China Sea; North Pacific Ocean,Very Small,Coastal (Natural),Unknown,Unknown,20.05,110.283333
Basuo,Dongfong,China,Gulf of Tonkin; South China Sea; North Pacific Ocean,Small,Coastal (Breakwater),Unknown,Medium,19.1,108.616667
Zhanjiang,Fort Bayard; Hsi Ying; Tsamkong,China,South China Sea; North Pacific Ocean,Small,River (Natural),Unknown,Small,21.2,110.4
Shekou,Chiwan,China,South China Sea; North Pacific Ocean,Medium,Coastal (Natural),Unknown,Small,22.466667,113.866667
Yangpu, ,China,Gulf of Tonkin; South China Sea; North Pacific Ocean,Very Small,Coastal (Breakwater),Unknown,Unknown,19.733333,109.183333
Shui Dong, ,China,South China Sea; North Pacific Ocean,Very Small,Coastal (Breakwater),Unknown,Unknown,21.483333,111.083333
Qinzhou, ,China,Gulf of Tonkin; South China Sea; North Pacific Ocean,Very Small,Coastal (Natural),Unknown,Unknown,21.733333,108.583333
Huangpu, ,China,South China Sea; North Pacific Ocean,Small,River (Natural),Unknown,Small,23.083333,113.416667
Huangpuxingang, ,China,South China Sea; North Pacific Ocean,Small,River (Natural),Unknown,Small,23.05,113.5
Guangzhou,Canton; Kuaung Fhou,China,South China Sea; North Pacific Ocean,Medium,River (Natural),Unknown,Small,23.116667,113.233333
Yantian, ,China,South China Sea; North Pacific Ocean,Small,Coastal (Natural),Unknown,Small,22.583333,114.266667
Huizhou, ,China,South China Sea; North Pacific Ocean,Very Small,Coastal (Natural),Unknown,Unknown,22.716667,114.516667
Chaozhou,Sanbaimen,China,South China Sea; North Pacific Ocean,Medium,Coastal (Natural),Unknown,Unknown,23.616667,117.083333
Dongshan, ,China,South China Sea; North Pacific Ocean,Small,Coastal (Natural),Unknown,Unknown,23.75666667,117.505
Xiamen,Amoy,China,Taiwan Strait; North Pacific Ocean,Medium,River (Natural),Unknown,Medium,24.45,118.066667
Zhangzhou, ,China,Taiwan Strait; North Pacific Ocean,Small,Coastal (Natural),Unknown,Small,24.683333,118.15
Quanzhou, ,China,Taiwan Strait; North Pacific Ocean,Small,Coastal (Natural),Unknown,Unknown,24.883333,118.6
Xiuyu, ,China,Taiwan Strait; North Pacific Ocean,Very Small,Coastal (Breakwater),Unknown,Unknown,25.233333,118.983333
Fuzhou,Foochou; Foochow,China,East China Sea; North Pacific Ocean,Very Small,River (Natural),Unknown,Unknown,26.083333,119.3
Wenzhou,Yung Chia,China,East China Sea; North Pacific Ocean,Medium,River (Natural),Unknown,Unknown,28.016667,120.65
Haimen,Haimen; Taizhou,China,East China Sea; North Pacific Ocean,Very Small,River (Natural),Unknown,Unknown,28.683333,121.45
Ningbo, ,China,East China Sea; North Pacific Ocean,Small,River (Natural),Unknown,Small,29.883333,121.55
Zhoushan,Dinghai,China,East China Sea; North Pacific Ocean,Small,Coastal (Natural),Unknown,Unknown,30,122.1
Zhapu,Chapu; Hangzhou,China,East China Sea; North Pacific Ocean,Small,Open Roadstead,Unknown,Unknown,30.583333,121.083333
Shanghai,Shanghai,China,East China Sea; North Pacific Ocean,Large,River (Natural),Unknown,Large,31.216667,121.5
Changshu, ,China,East China Sea; North Pacific Ocean,Small,Open Roadstead,Unknown,Unknown,31.766667,120.95
Taicang, ,China,East China Sea; North Pacific Ocean,Very Small,Coastal (Breakwater),Unknown,Unknown,31.65,121.2
Gaogang,Taizhou,China,East China Sea; North Pacific Ocean,Small,River (Natural),Unknown,Unknown,32.283333,119.85
Yangzhou, ,China,East China Sea; North Pacific Ocean,Small,River (Natural),Unknown,Unknown,32.266667,119.433333
Zhangjiangang, ,China,East China Sea; North Pacific Ocean,Small,River (Natural),Unknown,Unknown,31.966667,120.4
Nantong, ,China,East China Sea; North Pacific Ocean,Small,River (Natural),Unknown,Unknown,32,120.8
Zhenjiang,Chinkiang,China,East China Sea; North Pacific Ocean,Small,River (Natural),Unknown,Medium,32.216667,119.433333
Nanjing,Nanking,China,East China Sea; North Pacific Ocean,Very Small,River (Natural),Unknown,Small,32.083333,118.75
Wu Hu, ,China,East China Sea; North Pacific Ocean,Small,River (Natural),Unknown,Unknown,31.333333,118.366667
Ankingcheng,Anking; Anqing; Huai Ning,China,East China Sea; North Pacific Ocean,Very Small,River (Natural),Unknown,Small,30.516667,117.033333
Hankow,Wu Han,China,East China Sea; North Pacific Ocean,Medium,River (Natural),Unknown,Unknown,30.583333,114.283333
Wanxian,Wan Hsie Shih,China,Gulf of Tonkin; South China Sea; North Pacific Ocean,Very Small,River (Natural),Unknown,Small,30.816667,108.433333
Lanshan, ,China,Yellow Sea; North Pacific Ocean,Very Small,Open Roadstead,Unknown,Unknown,35.08,119.366667
Lianyungang,Laoyao; Yuntai,China,Yellow Sea; North Pacific Ocean,Small,Coastal (Breakwater),Unknown,Medium,34.733333,119.45
Rizhao,Shijiu Zui; Shijiusuo,China,Yellow Sea; North Pacific Ocean,Very Small,Coastal (Natural),Unknown,Unknown,35.383333,119.566667
Qingdao Gang,Tsingtao,China,Yellow Sea; North Pacific Ocean,Large,Open Roadstead,Unknown,Small,36.033333,120.266667
Weihai, ,China,Yellow Sea; North Pacific Ocean,Medium,Coastal (Natural),Unknown,Unknown,37.5,122.1
Yantai,Chefoo; Chin Fou,China,Yellow Sea; North Pacific Ocean,Small,Coastal (Breakwater),Unknown,Medium,37.55,121.45
Longkou Gang,Lungkow,China,Bo Hai; Yellow Sea; North Pacific Ocean,Small,Coastal (Natural),Unknown,Unknown,37.633333,120.283333
Dagu Tanggu,Asin Kang; Hsin Kang; Tang Ku,China,Bo Hai; Yellow Sea; North Pacific Ocean,Very Small,River (Natural),Unknown,Large,38.966667,117.666667
Tianjin Xin Gang,Tien Ching; Tientsin,China,Bo Hai; Yellow Sea; North Pacific Ocean,Large,River (Natural),Unknown,Large,38.966667,117.833333
Qinhuangdao,Chin Huang Tao; Chin Wangtao; Qinhuangdao,China,Bo Hai; Yellow Sea; North Pacific Ocean,Medium,Coastal (Breakwater),Unknown,Medium,39.933333,119.616667
Jinzhou Wan, ,China,Bo Hai; Yellow Sea; North Pacific Ocean,Very Small,Open Roadstead,Unknown,Medium,40.75,121.1
Yingkou,Newchwang,China,Bo Hai; Yellow Sea; North Pacific Ocean,Small,Coastal (Breakwater),Unknown,Small,40.683333,122.233333
Bayuquan, ,China,Bo Hai; Yellow Sea; North Pacific Ocean,Very Small,Open Roadstead,Unknown,Small,40.3,122.083333
Lushun,Port Arthur; Ryojun Ko,China,Yellow Sea; North Pacific Ocean,Very Small,Coastal (Breakwater),Unknown,Medium,38.783333,121.25
Dalian,Dairen; Dalian; Dalian Wan; Ta Cien; Ta Lien,China,Yellow Sea; North Pacific Ocean,Large,Coastal (Breakwater),Unknown,Medium,38.916667,121.666667
Turbo, ,Colombia,Caribbean Sea; North Atlantic Ocean,Very Small,Open Roadstead,Unknown,Unknown,8.083333,-76.733333
Covenas,Covenas Offshore Tanker Terminal,Colombia,Caribbean Sea; North Atlantic Ocean,Small,Open Roadstead,Unknown,Unknown,9.416667,-75.683333
Covenas Offshore Term., ,Colombia,Caribbean Sea; North Atlantic Ocean,Very Small,Open Roadstead,Unknown,Unknown,9.5,-75.733333
Mamonal, ,Colombia,Caribbean Sea; North Atlantic Ocean,Small,Open Roadstead,Unknown,Small,10.316667,-75.516667
El Bosque, ,Colombia,Caribbean Sea; North Atlantic Ocean,Small,Coastal (Natural),Unknown,Unknown,10.4,-75.533333
Cartagena, ,Colombia,Caribbean Sea; North Atlantic Ocean,Medium,Coastal (Natural),Unknown,Small,10.416667,-75.533333
Barranquilla, ,Colombia,Caribbean Sea; North Atlantic Ocean,Medium,River (Natural),Unknown,Small,10.966667,-74.766667
Puerto Prodeco,Puerto Zuniga,Colombia,Caribbean Sea; North Atlantic Ocean,Small,Open Roadstead,Unknown,Unknown,11.15,-74.216667
Pozos Colorados, ,Colombia,Caribbean Sea; North Atlantic Ocean,Small,Open Roadstead,Unknown,Small,11.15,-74.25
Santa Marta, ,Colombia,Caribbean Sea; North Atlantic Ocean,Small,Coastal (Natural),Unknown,Large,11.25,-74.216667
Puerto Bolivar, ,Colombia,Caribbean Sea; North Atlantic Ocean,Small,Coastal (Breakwater),Unknown,Medium,12.25,-71.966667
Tumaco, ,Colombia,North Pacific Ocean,Very Small,Open Roadstead,Unknown,Unknown,1.816667,-78.75
Moroni, ,Comoros,Mozambique Channel; Indian Ocean,Very Small,Open Roadstead,Unknown,Unknown,-11.7,43.25
Fomboni,Fumboni,Comoros,Mozambique Channel; Indian Ocean,Very Small,Open Roadstead,Unknown,Unknown,-12.266667,43.75
Moutsamoudu,Matsamudu,Comoros,Indian Ocean,Very Small,Open Roadstead,Unknown,Unknown,-12.15,44.4
Dzaoudzi, ,Comoros,Mozambique Channel; Indian Ocean,Very Small,Open Roadstead,Unknown,Unknown,-12.783333,45.25
Dussafu Terminal, ,Congo (Brazzaville),South Atlantic Ocean,Very Small,Open Roadstead,Unknown,Unknown,-4.25,10.816667
Yombo Terminal, ,Congo (Brazzaville),South Atlantic Ocean,Very Small,Open Roadstead,Unknown,Unknown,-4.45,11.1
Djeno Terminal, ,Congo (Brazzaville),South Atlantic Ocean,Very Small,Open Roadstead,Unknown,Unknown,-4.933333,11.9
N'kossa Terminal, ,Congo (Brazzaville),South Atlantic Ocean,Very Small,Open Roadstead,Unknown,Unknown,-5.266667,11.566667
Pointe Noire,Balck Point Bay,Congo (Brazzaville),South Atlantic Ocean,Small,Coastal (Breakwater),Unknown,Large,-4.783333,11.833333
Banana, ,Congo (Kinshasa),South Atlantic Ocean,Very Small,River (Natural),Unknown,Unknown,-5.983333,12.383333
Boma, ,Congo (Kinshasa),South Atlantic Ocean,Small,River (Natural),Unknown,Medium,-5.85,13.05
Matadi, ,Congo (Kinshasa),South Atlantic Ocean,Small,River (Natural),Unknown,Unknown,-5.816667,13.45
Avatiu,Avarua; Port Hutt,Cook Islands,South Pacific Ocean,Very Small,Coastal (Natural),Unknown,Unknown,-21.2,-159.783333
Puerto Moin, ,Costa Rica,Caribbean Sea; North Atlantic Ocean,Very Small,Coastal (Breakwater),Unknown,Small,10,-83.083333
Puerto Limon,Limon,Costa Rica,Caribbean Sea; North Atlantic Ocean,Very Small,Coastal (Breakwater),Unknown,Small,9.983333,-83.016667
Golfito, ,Costa Rica,North Pacific Ocean,Small,Coastal (Natural),Unknown,Medium,8.633333,-83.166667
Puerto Quepos,Punta Quepos,Costa Rica,North Pacific Ocean,Very Small,Coastal (Natural),Unknown,Unknown,9.433333,-84.166667
Puerto Caldera, ,Costa Rica,North Pacific Ocean,Very Small,Coastal (Natural),Unknown,Unknown,9.916667,-84.716667
Puntarenas,Punta Arenas,Costa Rica,North Pacific Ocean,Very Small,Open Roadstead,Unknown,Small,9.983333,-84.833333
San Pedro, ,Côte d'Ivoire,North Atlantic Ocean,Very Small,Open Roadstead,Unknown,Unknown,4.733333,-6.616667
Baobab Marine Terminal, ,Côte d'Ivoire,North Atlantic Ocean,Very Small,Open Roadstead,Unknown,Unknown,4.966667,-4.55
Port Bouet,Bouet; Pickaninny Bassam,Côte d'Ivoire,North Atlantic Ocean,Very Small,Open Roadstead,Unknown,Unknown,5.233333,-3.966667
Abidjan, ,Côte d'Ivoire,North Atlantic Ocean,Large,Canal or Lake,Unknown,Unknown,5.25,-4.016667
Espoir Marine Terminal, ,Côte d'Ivoire,North Atlantic Ocean,Very Small,Open Roadstead,Unknown,Unknown,5.05,-4.45
Umag, ,Croatia,Adriatic Sea; Mediterranean Sea; North Atlantic Ocean,Very Small,Coastal (Breakwater),Unknown,Unknown,45.433333,13.516667
Rovinj,Rovigno Distria,Croatia,Adriatic Sea; Mediterranean Sea; North Atlantic Ocean,Small,Coastal (Breakwater),Unknown,Small,45.083333,13.633333
Pula,Rada Di Pola,Croatia,Adriatic Sea; Mediterranean Sea; North Atlantic Ocean,Very Small,Coastal (Breakwater),Unknown,Small,44.883333,13.8
Zaliv Rasa, ,Croatia,Adriatic Sea; Mediterranean Sea; North Atlantic Ocean,Very Small,Coastal (Natural),Unknown,Small,45.05,14.066667
Brsica,Arsa; Luka Rasa; Rasa; Valdivagna; Zaliv Rasa,Croatia,Adriatic Sea; Mediterranean Sea; North Atlantic Ocean,Very Small,Coastal (Natural),Unknown,Unknown,45.033333,14.05
Rijeka Luka,Baross; Branjoica; Brgud; Fiume; Luka Rijeka; Nazar Sauro; Susacka; Susaka,Croatia,Adriatic Sea; Mediterranean Sea; North Atlantic Ocean,Large,River (Basins),Unknown,Large,45.333333,14.433333
Bakar,Buccari,Croatia,Adriatic Sea; Mediterranean Sea; North Atlantic Ocean,Small,Coastal (Natural),Unknown,Small,45.3,14.533333
Omisalj, ,Croatia,Adriatic Sea; Mediterranean Sea; North Atlantic Ocean,Small,Coastal (Natural),Unknown,Unknown,45.216667,14.55
Senj,Luka Senj,Croatia,Adriatic Sea; Mediterranean Sea; North Atlantic Ocean,Very Small,Coastal (Natural),Unknown,Unknown,44.983333,14.9
Zadar,Zara,Croatia,Adriatic Sea; Mediterranean Sea; North Atlantic Ocean,Small,Coastal (Natural),Unknown,Small,44.116667,15.216667
Sibenik,Sebenico,Croatia,Adriatic Sea; Mediterranean Sea; North Atlantic Ocean,Small,Coastal (Natural),Unknown,Small,43.733333,15.883333
Split, ,Croatia,Adriatic Sea; Mediterranean Sea; North Atlantic Ocean,Large,Coastal (Breakwater),Unknown,Medium,43.5,16.433333
Dugi Rat, ,Croatia,Adriatic Sea; Mediterranean Sea; North Atlantic Ocean,Very Small,Coastal (Natural),Unknown,Unknown,43.45,16.65
Ploce,Kardelievo; Kardeljevo,Croatia,Adriatic Sea; Mediterranean Sea; North Atlantic Ocean,Very Small,Coastal (Natural),Unknown,Large,43.05,17.433333
Korcula, ,Croatia,Adriatic Sea; Mediterranean Sea; North Atlantic Ocean,Very Small,Coastal (Natural),Unknown,Unknown,42.933333,17.133333
Dubrovnik,Ragusa,Croatia,Adriatic Sea; Mediterranean Sea; North Atlantic Ocean,Small,Coastal (Natural),Unknown,Small,42.666667,18.083333
Mariel,Boca Del Mariel,Cuba,Gulf of Mexico; North Atlantic Ocean,Small,Coastal (Breakwater),Unknown,Medium,22.983333,-82.75
Bahai De La Habana,Havana,Cuba,Gulf of Mexico; North Atlantic Ocean,Large,Coastal (Breakwater),Unknown,Medium,23.133333,-82.366667
Cardenas, ,Cuba,Straits of Florida; North Atlantic Ocean,Small,Open Roadstead,Unknown,Medium,23.05,-81.2
Nuevitas Bay,Nuevitas; Pastelillo; Puerto Tarafa,Cuba,North Atlantic Ocean,Large,Coastal (Natural),Unknown,Medium,21.55,-77.266667
Manati,Puerto Manati,Cuba,North Atlantic Ocean,Small,River (Natural),Unknown,Small,21.366667,-76.816667
Felton, ,Cuba,North Atlantic Ocean,Small,Coastal (Natural),Unknown,Medium,20.733333,-75.6
Nicaro, ,Cuba,North Atlantic Ocean,Small,Coastal (Natural),Unknown,Unknown,20.716667,-75.55
Bahia De Sagua De Tanamo,Cayo Mambi; Puerto Tanamo,Cuba,North Atlantic Ocean,Large,Open Roadstead,Unknown,Unknown,20.683333,-75.333333
Cayo Moa Grande, ,Cuba,North Atlantic Ocean,Small,Coastal (Breakwater),Unknown,Unknown,20.666667,-74.9
Puerto Guantanamo,Deseo; El Deseo,Cuba,Caribbean Sea; North Atlantic Ocean,Large,Coastal (Natural),Unknown,Medium,19.983333,-75.133333
Santiago De Cuba, ,Cuba,Caribbean Sea; North Atlantic Ocean,Medium,Coastal (Natural),Unknown,Small,20.016667,-75.833333
Media Luna, ,Cuba,Caribbean Sea; North Atlantic Ocean,Very Small,Open Roadstead,Unknown,Small,20.15,-77.433333
Ceiba Hueca, ,Cuba,Caribbean Sea; North Atlantic Ocean,Very Small,Open Roadstead,Unknown,Unknown,20.216667,-77.316667
Manzanillo, ,Cuba,Caribbean Sea; North Atlantic Ocean,Very Small,Open Roadstead,Unknown,Unknown,20.35,-77.116667
Guayabal, ,Cuba,Caribbean Sea; North Atlantic Ocean,Small,Open Roadstead,Unknown,Small,20.7,-77.616667
Jucaro, ,Cuba,Caribbean Sea; North Atlantic Ocean,Very Small,Open Roadstead,Unknown,Unknown,21.616667,-78.85
Tunas De Zaza, ,Cuba,Caribbean Sea; North Atlantic Ocean,Very Small,Open Roadstead,Unknown,Unknown,21.633333,-79.55
Casilda,Trinidad,Cuba,Caribbean Sea; North Atlantic Ocean,Medium,Coastal (Natural),Unknown,Small,21.75,-79.983333
Cienfuegos, ,Cuba,Caribbean Sea; North Atlantic Ocean,Large,Coastal (Natural),Unknown,Medium,22.15,-80.45
Nueva Gerona,Isla De Pinos,Cuba,Caribbean Sea; North Atlantic Ocean,Very Small,Open Roadstead,Unknown,Unknown,21.916667,-82.8
Willemstad, ,Curacao,Caribbean Sea; North Atlantic Ocean,Medium,Coastal (Breakwater),Unknown,Unknown,12.116667,-68.933333
Sint Michelsbaai, ,Curacao,Caribbean Sea; North Atlantic Ocean,Very Small,Open Roadstead,Unknown,Unknown,12.133333,-69.016667
Kyrenia, ,Cyprus,Mediterranean Sea; North Atlantic Ocean,Very Small,Coastal (Breakwater),Unknown,Unknown,35.35,33.333333
Xeros,Kara Vostasi; New Soli,Cyprus,Mediterranean Sea; North Atlantic Ocean,Very Small,Open Roadstead,Unknown,Unknown,35.133333,32.833333
Limassol, ,Cyprus,Mediterranean Sea; North Atlantic Ocean,Small,Coastal (Breakwater),Unknown,Unknown,34.666667,33.05
Larnaca, ,Cyprus,Mediterranean Sea; North Atlantic Ocean,Small,Coastal (Breakwater),Unknown,Unknown,34.916667,33.65
Dhekelia, ,Cyprus,Mediterranean Sea; North Atlantic Ocean,Very Small,Open Roadstead,Unknown,Unknown,34.966667,33.716667
Famagusta, ,Cyprus,Mediterranean Sea; North Atlantic Ocean,Small,Coastal (Breakwater),Unknown,Small,35.116667,33.933333
Nekso,Nexo,Denmark,Baltic Sea; North Atlantic Ocean,Very Small,Coastal (Breakwater),Unknown,Unknown,55.066667,15.133333
Ronne, ,Denmark,Baltic Sea; North Atlantic Ocean,Small,Coastal (Breakwater),Unknown,Unknown,55.1,14.7
Hasle, ,Denmark,Baltic Sea; North Atlantic Ocean,Very Small,Coastal (Breakwater),Unknown,Medium,55.183333,14.7
Koge, ,Denmark,Baltic Sea; North Atlantic Ocean,Very Small,Coastal (Breakwater),Unknown,Small,55.45,12.2
Tuborg, ,Denmark,Baltic Sea; North Atlantic Ocean,Very Small,Coastal (Breakwater),Unknown,Medium,55.716667,12.583333
Helsingor,Elsingor,Denmark,Baltic Sea; North Atlantic Ocean,Very Small,Coastal (Breakwater),Unknown,Small,56.033333,12.616667
Frederiksvaerk, ,Denmark,Kattegat; North Atlantic Ocean,Very Small,Coastal (Breakwater),Unknown,Small,55.966667,12.016667
Kyndbyvaerkets Havn, ,Denmark,Kattegat; North Atlantic Ocean,Very Small,Coastal (Breakwater),Unknown,Unknown,55.816667,11.883333
Kalundborg,Asnaes,Denmark,Kattegat; North Atlantic Ocean,Small,Coastal (Breakwater),Unknown,Small,55.683333,11.1
Korsor, ,Denmark,Baltic Sea; North Atlantic Ocean,Small,Coastal (Breakwater),Unknown,Medium,55.333333,11.133333
Stigsnaesvaerket,Stigsnaes,Denmark,Baltic Sea; North Atlantic Ocean,Very Small,Open Roadstead,Unknown,Unknown,55.2,11.25
Gulfhaven, ,Denmark,Baltic Sea; North Atlantic Ocean,Very Small,Open Roadstead,Unknown,Unknown,55.2,11.266667
Naestved, ,Denmark,Baltic Sea; North Atlantic Ocean,Small,River (Basins),Unknown,Unknown,55.233333,11.75
Nykobing (Falster), ,Denmark,Baltic Sea; North Atlantic Ocean,Small,River (Natural),Unknown,Medium,54.766667,11.866667
Bandholm, ,Denmark,Baltic Sea; North Atlantic Ocean,Small,Coastal (Breakwater),Unknown,Medium,54.833333,11.5
Rodby Havn, ,Denmark,Baltic Sea; North Atlantic Ocean,Very Small,Coastal (Breakwater),Unknown,Unknown,54.65,11.35
Rudkobing, ,Denmark,Baltic Sea; North Atlantic Ocean,Small,Coastal (Breakwater),Unknown,Unknown,54.95,10.716667
Aeroskobing, ,Denmark,Baltic Sea; North Atlantic Ocean,Very Small,Coastal (Breakwater),Unknown,Unknown,54.883333,10.416667
Svendborg, ,Denmark,Baltic Sea; North Atlantic Ocean,Small,Coastal (Natural),Unknown,Small,55.066667,10.616667
Nyborg, ,Denmark,Baltic Sea; North Atlantic Ocean,Small,Coastal (Breakwater),Unknown,Small,55.316667,10.8
Odense, ,Denmark,Kattegat; North Atlantic Ocean,Small,Canal or Lake,Unknown,Medium,55.416667,10.383333
Skaerbaek, ,Denmark,Kattegat; North Atlantic Ocean,Very Small,Open Roadstead,Unknown,Unknown,55.516667,9.616667
Assens, ,Denmark,Baltic Sea; North Atlantic Ocean,Small,Coastal (Breakwater),Unknown,Small,55.266667,9.883333
Faborg,Faaborg,Denmark,Baltic Sea; North Atlantic Ocean,Small,Coastal (Natural),Unknown,Small,55.1,10.25
Sonderborg, ,Denmark,Baltic Sea; North Atlantic Ocean,Small,River (Natural),Unknown,Small,54.916667,9.783333
Augustenborg, ,Denmark,Baltic Sea; North Atlantic Ocean,Small,Coastal (Natural),Unknown,Unknown,54.95,9.866667
Abenra,Apenrade,Denmark,Baltic Sea; North Atlantic Ocean,Small,Coastal (Breakwater),Unknown,Small,55.05,9.433333
Ensted, ,Denmark,Baltic Sea; North Atlantic Ocean,Very Small,Open Roadstead,Unknown,Unknown,55.016667,9.433333
Haderslev, ,Denmark,Baltic Sea; North Atlantic Ocean,Small,River (Basins),Unknown,Small,55.25,9.5
Kolding, ,Denmark,Kattegat; North Atlantic Ocean,Small,River (Basins),Unknown,Medium,55.483333,9.5
Fredericia, ,Denmark,Kattegat; North Atlantic Ocean,Small,Coastal (Natural),Unknown,Large,55.566667,9.766667
Vejle, ,Denmark,Kattegat; North Atlantic Ocean,Small,Coastal (Natural),Unknown,Small,55.716667,9.55
Horsens, ,Denmark,Kattegat; North Atlantic Ocean,Very Small,Coastal (Breakwater),Unknown,Small,55.866667,9.85
Arhus, ,Denmark,Kattegat; North Atlantic Ocean,Medium,Coastal (Breakwater),Unknown,Large,56.15,10.216667
Studstrup, ,Denmark,Kattegat; North Atlantic Ocean,Medium,Coastal (Natural),Unknown,Unknown,56.25,10.35
Grenaa Havn, ,Denmark,Kattegat; North Atlantic Ocean,Very Small,Coastal (Breakwater),Unknown,Small,56.416667,10.933333
Randers, ,Denmark,Kattegat; North Atlantic Ocean,Small,River (Natural),Unknown,Small,56.466667,10.05
Mariager, ,Denmark,Kattegat; North Atlantic Ocean,Very Small,Coastal (Natural),Unknown,Small,56.65,9.983333
Hobro, ,Denmark,Kattegat; North Atlantic Ocean,Very Small,River (Natural),Unknown,Small,56.633333,9.8
Hals, ,Denmark,Kattegat; North Atlantic Ocean,Very Small,River (Natural),Unknown,Small,56.983333,10.316667
Alborg,Mou,Denmark,Kattegat; North Atlantic Ocean,Small,River (Natural),Unknown,Small,57.05,9.933333
Frederikshavn, ,Denmark,Kattegat; North Atlantic Ocean,Small,Coastal (Breakwater),Unknown,Medium,57.433333,10.55
Skagen Havn, ,Denmark,Kattegat; North Atlantic Ocean,Small,Coastal (Breakwater),Unknown,Small,57.716667,10.6
Thisted, ,Denmark,Kattegat; North Atlantic Ocean,Very Small,Coastal (Breakwater),Unknown,Small,56.95,8.7
Esbjerg, ,Denmark,North Sea; North Atlantic Ocean,Small,Coastal (Natural),Unknown,Small,55.466667,8.45
Middelfart, ,Denmark,Kattegat; North Atlantic Ocean,Small,Coastal (Breakwater),Unknown,Small,55.5,9.733333
Djibouti,Jibuti,Djibouti,Gulf of Aden; Indian Ocean,Small,Coastal (Natural),Cargo,Medium,11.6,43.133333
Roseau, ,Dominica,Caribbean Sea; North Atlantic Ocean,Very Small,Coastal (Natural),Unknown,Unknown,15.3,-61.4
Portsmouth,Prince Ruppert Bay,Dominica,Caribbean Sea; North Atlantic Ocean,Very Small,Coastal (Natural),Unknown,Unknown,15.566667,-61.466667
Pepillo Salcedo,Puerto Libertador; Puerto Manzanillo,Dominican Republic,North Atlantic Ocean,Very Small,Open Roadstead,Unknown,Small,19.7,-71.75
Puerto Plata, ,Dominican Republic,North Atlantic Ocean,Small,Open Roadstead,Unknown,Unknown,19.8,-70.7
Sanchez, ,Dominican Republic,North Atlantic Ocean,Very Small,Open Roadstead,Unknown,Small,19.233333,-69.616667
La Romana, ,Dominican Republic,Caribbean Sea; North Atlantic Ocean,Very Small,River (Natural),Unknown,Medium,18.416667,-68.966667
San Pedro De Macoris, ,Dominican Republic,Caribbean Sea; North Atlantic Ocean,Small,River (Natural),Unknown,Unknown,18.45,-69.316667
Andres (Andres Lng Terminal),Boca Chica,Dominican Republic,Caribbean Sea; North Atlantic Ocean,Medium,Open Roadstead,Unknown,Small,18.433333,-69.633333
Santo Domingo,Ciudad Trujillo,Dominican Republic,Caribbean Sea; North Atlantic Ocean,Medium,River (Natural),Unknown,Unknown,18.466667,-69.883333
Puerto De Haina,Haina; Rio Haina,Dominican Republic,Caribbean Sea; North Atlantic Ocean,Small,River (Natural),Unknown,Small,18.416667,-70.016667
Punta Nizao Oil Terminal, ,Dominican Republic,Caribbean Sea; North Atlantic Ocean,Small,Open Roadstead,Unknown,Unknown,18.2,-70.2
Las Calderas, ,Dominican Republic,Caribbean Sea; North Atlantic Ocean,Small,Coastal (Natural),Unknown,Unknown,18.216667,-70.516667
Puerto Viejo De Azua,Azua; Tortuguero,Dominican Republic,Caribbean Sea; North Atlantic Ocean,Very Small,Open Roadstead,Unknown,Unknown,18.35,-70.833333
Santa Cruz De Barahona,Barahona,Dominican Republic,Caribbean Sea; North Atlantic Ocean,Small,Coastal (Natural),Unknown,Medium,18.2,-71.083333
Puerto Bolivar, ,Ecuador,South Pacific Ocean,Very Small,River (Natural),Unknown,Small,-3.266667,-80
Guayaquil, ,Ecuador,South Pacific Ocean,Small,River (Natural),Unknown,Medium,-2.2,-79.883333
Puerto Maritimo De Guayaquil,Puero Nuevo,Ecuador,South Pacific Ocean,Small,River (Natural),Unknown,Medium,-2.283333,-79.9
La Libertad, ,Ecuador,South Pacific Ocean,Very Small,Open Roadstead,Unknown,Small,-2.216667,-80.916667
Manta, ,Ecuador,South Pacific Ocean,Very Small,Coastal (Breakwater),Unknown,Unknown,-0.95,-80.716667
Esmeraldas, ,Ecuador,North Pacific Ocean,Very Small,River (Natural),Unknown,Unknown,1,-79.65
Bur Said (Port Said), ,Egypt,Mediterranean Sea; North Atlantic Ocean,Large,Canal or Lake,Unknown,Medium,31.266667,32.3
Damietta, ,Egypt,Mediterranean Sea; North Atlantic Ocean,Large,Coastal (Breakwater),Unknown,Unknown,31.483333,31.75
Al Iskandariyh (Alexandria), ,Egypt,Mediterranean Sea; North Atlantic Ocean,Large,Coastal (Breakwater),Unknown,Medium,31.166667,29.833333
Sidi Kerir (Kurayr), ,Egypt,Mediterranean Sea; North Atlantic Ocean,Small,Open Roadstead,Unknown,Medium,31.1,29.616667
El Hamra Oil Terminal, ,Egypt,Mediterranean Sea; North Atlantic Ocean,Very Small,Open Roadstead,Unknown,Unknown,30.983333,28.866667
Mersa Matruh, ,Egypt,Mediterranean Sea; North Atlantic Ocean,Very Small,Coastal (Breakwater),Unknown,Unknown,31.35,27.233333
Al Qusayr,Kosseir; Quesir,Egypt,Red Sea; Indian Ocean,Very Small,Open Roadstead,Unknown,Unknown,26.1,34.283333
Bur Safaga,Bur Safajah; Port Safaga,Egypt,Red Sea; Indian Ocean,Small,Coastal (Breakwater),Unknown,Medium,26.733333,33.95
El Tur Harbor, ,Egypt,Gulf of Suez; Red Sea; Indian Ocean,Very Small,Coastal (Natural),Unknown,Unknown,28.233333,33.616667
Zeit Bay Terminal, ,Egypt,Gulf of Suez; Red Sea; Indian Ocean,Small,Open Roadstead,Unknown,Unknown,27.833333,33.6
East Zeit Terminal, ,Egypt,Gulf of Suez; Red Sea; Indian Ocean,Very Small,Open Roadstead,Unknown,Unknown,27.85,33.6
Sharm El Sheikh, ,Egypt,Red Sea; Indian Ocean,Very Small,Open Roadstead,Unknown,Unknown,27.85,34.283333
Zeit Bay Lpg Terminal, ,Egypt,Gulf of Suez; Red Sea; Indian Ocean,Very Small,Open Roadstead,Unknown,Unknown,27.8,33.566667
El Ghardaqa,Hurghada,Egypt,Gulf of Suez; Red Sea; Indian Ocean,Very Small,Coastal (Natural),Unknown,Unknown,27.216667,33.85
Ras Shukhier,Aras Shukhayr,Egypt,Gulf of Suez; Red Sea; Indian Ocean,Medium,Open Roadstead,Unknown,Unknown,28.133333,33.283333
Ras Gharib, ,Egypt,Gulf of Suez; Red Sea; Indian Ocean,Very Small,Open Roadstead,Unknown,Unknown,28.35,33.1
Ras Badran Oil Terminal,Ras Budran,Egypt,Gulf of Suez; Red Sea; Indian Ocean,Very Small,Open Roadstead,Unknown,Unknown,28.95,33.166667
North Ain Sukhna Port,Sokhna Port,Egypt,Gulf of Suez; Red Sea; Indian Ocean,Small,Coastal (Breakwater),Unknown,Unknown,29.65,32.366667
Sokhna Port Gas Tanker Terminal, ,Egypt,Gulf of Suez; Red Sea; Indian Ocean,Very Small,Coastal (Breakwater),Unknown,Unknown,29.683333,32.366667
As Suways,Port Suez,Egypt,Gulf of Suez; Red Sea; Indian Ocean,Large,Coastal (Breakwater),Unknown,Large,29.966667,32.55
El-Adabiya,Port Ababiya,Egypt,Gulf of Suez; Red Sea; Indian Ocean,Small,Coastal (Natural),Unknown,Large,29.866667,32.466667
El Ismailiya,Ismailia,Egypt,Suez Canal; Red Sea; Indian Ocean,Small,Canal or Lake,Unknown,Unknown,30.583333,32.283333
Ras Sudr, ,Egypt,Gulf of Suez; Red Sea; Indian Ocean,Very Small,Open Roadstead,Unknown,Unknown,29.583333,32.7
Ain Sukhna Terminal, ,Egypt,Gulf of Suez; Red Sea; Indian Ocean,Large,Open Roadstead,Unknown,Unknown,29.583333,32.366667
Zafarana Terminal, ,Egypt,Gulf of Suez; Red Sea; Indian Ocean,Very Small,Open Roadstead,Unknown,Unknown,29.166667,32.683333
Ras Abu Zanimah,Abu Zenima,Egypt,Gulf of Suez; Red Sea; Indian Ocean,Small,Coastal (Natural),Unknown,Unknown,29.033333,33.116667
Wadi Feiran, ,Egypt,Gulf of Suez; Red Sea; Indian Ocean,Small,Open Roadstead,Unknown,Unknown,28.75,33.2
Acajutla, ,El Salvador,North Pacific Ocean,Very Small,Coastal (Breakwater),Unknown,Small,13.583333,-89.833333
Acajutla Offshore Terminal,El Paso Terminal,El Salvador,North Pacific Ocean,Very Small,Open Roadstead,Unknown,Unknown,13.583333,-89.866667
La Union,Cutuco,El Salvador,North Pacific Ocean,Very Small,Coastal (Natural),Fishing,Small,13.333333,-87.833333
Bata, ,Equatorial Guinea,Gulf of Guinea; North Atlantic Ocean,Very Small,Open Roadstead,Unknown,Unknown,1.866667,9.766667
Punta Europa Terminal, ,Equatorial Guinea,Gulf of Guinea; North Atlantic Ocean,Very Small,Open Roadstead,Unknown,Unknown,3.783333,8.716667
Serpentina Terminal, ,Equatorial Guinea,Gulf of Guinea; North Atlantic Ocean,Very Small,Open Roadstead,Unknown,Unknown,3.8,8.083333
Malabo,Rey Malabo; Santa Isabelle,Equatorial Guinea,Gulf of Guinea; North Atlantic Ocean,Small,Coastal (Natural),Unknown,Unknown,3.75,8.783333
Luba, ,Equatorial Guinea,Gulf of Guinea; North Atlantic Ocean,Very Small,Coastal (Natural),Unknown,Unknown,3.5,8.566667
Ceiba Terminal, ,Equatorial Guinea,Gulf of Guinea; North Atlantic Ocean,Very Small,Open Roadstead,Unknown,Unknown,1.416667,9.233333
Cogo, ,Equatorial Guinea,Gulf of Guinea; North Atlantic Ocean,Very Small,River (Natural),Unknown,Unknown,1.083333,9.7
Assab,Aseb,Eritrea,Red Sea; Indian Ocean,Small,Coastal (Natural),Unknown,Unknown,13,42.75
Mitsiwa Harbor,Massaua; Massawa,Eritrea,Red Sea; Indian Ocean,Small,Coastal (Breakwater),Unknown,Medium,15.616667,39.466667
Kunda,Sadam,Estonia,Gulf of Finland; Baltic Sea; North Atlantic Ocean,Very Small,Coastal (Breakwater),Cargo,Unknown,59.527775,26.547196
Vanasadam - Port of Tallinn, ,Estonia,Gulf of Finland; Baltic Sea; North Atlantic Ocean,Large,Coastal (Breakwater),Ferry,None,59.450128,24.766676
Muuga-Port of Tallin, ,Estonia,Gulf of Finland; Baltic Sea; North Atlantic Ocean,Large,Coastal (Breakwater),Cargo,None,59.500042,24.966693
Paldiski Lounasadam, ,Estonia,Gulf of Finland; Baltic Sea; North Atlantic Ocean,Large,Coastal (Breakwater),Cargo,Small,59.333343,24.081111
Osmussaar,Odensholm,Estonia,Gulf of Finland; Baltic Sea; North Atlantic Ocean,Very Small,Coastal (Natural),Unknown,Unknown,59.3,23.366667
Vagur, ,Faroe Islands,North Atlantic Ocean,Very Small,Coastal (Natural),Unknown,None,61.483333,-6.8
Tvoroyri,Tverra,Faroe Islands,North Atlantic Ocean,Very Small,Coastal (Natural),Unknown,Unknown,61.55,-6.8
Torshavn,Thorshavn,Faroe Islands,Norwegian Sea; North Atlantic Ocean,Very Small,Coastal (Breakwater),Unknown,Unknown,62,-6.75
Kongshavn, ,Faroe Islands,Norwegian Sea; North Atlantic Ocean,Very Small,Coastal (Breakwater),Unknown,Unknown,62.116667,-6.733333
Runavik, ,Faroe Islands,Norwegian Sea; North Atlantic Ocean,Very Small,Coastal (Natural),Unknown,Unknown,62.116667,-6.716667
Vestmanna,Vestmanhavn,Faroe Islands,North Atlantic Ocean,Very Small,Coastal (Natural),Fishing,None,62.15,-7.166667
Sorvagur,Sorvaag,Faroe Islands,North Atlantic Ocean,Very Small,Coastal (Natural),Unknown,Unknown,62.083333,-7.25
Fuglafjordur,Fuglefjord,Faroe Islands,Norwegian Sea; North Atlantic Ocean,Very Small,Coastal (Natural),Unknown,None,62.25,-6.8
Klaksvik, ,Faroe Islands,Norwegian Sea; North Atlantic Ocean,Very Small,Coastal (Natural),Unknown,None,62.233333,-6.583333
Lele Harbor, ,Federated States of Micronesia,North Pacific Ocean,Very Small,Coastal (Natural),Unknown,Unknown,5.333333,163.033333
Pohnpei Harbor,Langar Road,Federated States of Micronesia,North Pacific Ocean,Small,Coastal (Natural),Unknown,Unknown,6.983333,158.2
Colonia,Tomil Harbor; Yap Colonia International Port,Federated States of Micronesia,North Pacific Ocean,Very Small,Coastal (Natural),Unknown,Unknown,9.516667,138.133333
Lautoka Harbor, ,Fiji,South Pacific Ocean,Very Small,Coastal (Breakwater),Unknown,Small,-17.6,177.45
Suva Harbor, ,Fiji,South Pacific Ocean,Small,Coastal (Natural),Unknown,Unknown,-18.133333,178.416667
Levuka, ,Fiji,South Pacific Ocean,Small,Coastal (Natural),Unknown,Unknown,-17.683333,178.833333
Malai, ,Fiji,South Pacific Ocean,Very Small,Coastal (Breakwater),Unknown,Unknown,-16.35,179.366667
Savusavu Bay,Nakama,Fiji,South Pacific Ocean,Very Small,Open Roadstead,Unknown,Unknown,-16.766667,179.333333
Tornio,Torina,Finland,Gulf of Bothnia; Baltic Sea; North Atlantic Ocean,Small,River (Natural),Unknown,Small,65.766667,24.166667
Kemi, ,Finland,Gulf of Bothnia; Baltic Sea; North Atlantic Ocean,Small,Coastal (Natural),Unknown,Small,65.733333,24.566667
Oulu,Uleaborg,Finland,Gulf of Bothnia; Baltic Sea; North Atlantic Ocean,Large,River (Natural),Unknown,Medium,65.016667,25.4
Raahe,Brahestad,Finland,Gulf of Bothnia; Baltic Sea; North Atlantic Ocean,Small,Coastal (Breakwater),Unknown,Large,64.683333,24.416667
Veitsiluoto, ,Finland,Gulf of Bothnia; Baltic Sea; North Atlantic Ocean,Small,Coastal (Natural),Unknown,Small,65.7,24.616667
Jakobstad,Yakobstad,Finland,Gulf of Bothnia; Baltic Sea; North Atlantic Ocean,Medium,Coastal (Natural),Unknown,Small,63.683333,22.666667
Kantlax, ,Finland,Gulf of Bothnia; Baltic Sea; North Atlantic Ocean,Very Small,Open Roadstead,Unknown,Unknown,63.416667,22.283333
Vaasa,Vasa,Finland,Gulf of Bothnia; Baltic Sea; North Atlantic Ocean,Medium,Coastal (Natural),Unknown,Small,63.1,21.583333
Kaskinen,Kaskinen,Finland,Gulf of Bothnia; Baltic Sea; North Atlantic Ocean,Medium,Coastal (Natural),Unknown,Small,62.383333,21.233333
Kristinestad,Kristiinankaupunki,Finland,Gulf of Bothnia; Baltic Sea; North Atlantic Ocean,Medium,Coastal (Natural),Unknown,Small,62.283333,21.4
Pori, ,Finland,Gulf of Bothnia; Baltic Sea; North Atlantic Ocean,Large,Coastal (Natural),Unknown,Medium,61.483333,21.8
Mantyluoto, ,Finland,Gulf of Bothnia; Baltic Sea; North Atlantic Ocean,Medium,Coastal (Breakwater),Unknown,Medium,61.6,21.483333
Tahkoluoto, ,Finland,Gulf of Bothnia; Baltic Sea; North Atlantic Ocean,Very Small,Open Roadstead,Unknown,Medium,61.633333,21.4
Rauma, ,Finland,Gulf of Bothnia; Baltic Sea; North Atlantic Ocean,Medium,Coastal (Breakwater),Unknown,Medium,61.133333,21.5
Uusikaupunki,Nystad,Finland,Gulf of Bothnia; Baltic Sea; North Atlantic Ocean,Small,Coastal (Breakwater),Unknown,Small,60.8,21.4
Naantali, ,Finland,Baltic Sea; North Atlantic Ocean,Very Small,Coastal (Natural),Unknown,Small,60.466667,22.016667
Turku, ,Finland,Baltic Sea; North Atlantic Ocean,Medium,River (Basins),Unknown,Small,60.45,22.233333
Tolkkinen, ,Finland,Gulf of Finland; Baltic Sea; North Atlantic Ocean,Very Small,Coastal (Breakwater),Unknown,Small,60.033333,25.583333
Signilskar, ,Finland,Baltic Sea; North Atlantic Ocean,Very Small,Coastal (Natural),Unknown,Unknown,60.2,19.333333
Mariehamn,Maarianhamina,Finland,Baltic Sea; North Atlantic Ocean,Small,Coastal (Natural),Unknown,Small,60.1,19.916667
Pargas, ,Finland,Baltic Sea; North Atlantic Ocean,Very Small,Coastal (Natural),Unknown,Unknown,60.283333,22.066667
Hanko, ,Finland,Gulf of Finland; Baltic Sea; North Atlantic Ocean,Small,Coastal (Breakwater),Unknown,Small,59.816667,22.95
Jussaro,Stor Jussaro,Finland,Gulf of Finland; Baltic Sea; North Atlantic Ocean,Very Small,Coastal (Natural),Unknown,Unknown,59.833333,23.566667
Inkoo, ,Finland,Gulf of Finland; Baltic Sea; North Atlantic Ocean,Very Small,River (Basins),Unknown,Small,60.016667,23.916667
Helsinki,Helsingfors,Finland,Gulf of Finland; Baltic Sea; North Atlantic Ocean,Large,Coastal (Breakwater),Unknown,Medium,60.166667,24.966667
Porvoo,Borga; Skoldvik,Finland,Gulf of Finland; Baltic Sea; North Atlantic Ocean,Very Small,River (Natural),Unknown,Small,60.3,25.633333
Loviisa,Lovisa,Finland,Gulf of Finland; Baltic Sea; North Atlantic Ocean,Very Small,Coastal (Natural),Unknown,Small,60.45,26.233333
Kotka, ,Finland,Gulf of Finland; Baltic Sea; North Atlantic Ocean,Large,Coastal (Breakwater),Unknown,Small,60.466667,26.966667
Hamina,Fredrikshamn,Finland,Gulf of Finland; Baltic Sea; North Atlantic Ocean,Small,Coastal (Natural),Unknown,Unknown,60.566667,27.2
Baie Du Marigot, ,France,Caribbean Sea; North Atlantic Ocean,Very Small,Open Roadstead,Unknown,Unknown,18.066667,-63.083333
Dunkerque Port Est, ,France,North Sea; North Atlantic Ocean,Medium,River (Tide Gates),Unknown,Unknown,51.05,2.383333
Dunkerque Port Ouest, ,France,North Sea; North Atlantic Ocean,Medium,Coastal (Tide Gates),Unknown,Unknown,51.066667,2.35
Gravelines, ,France,North Sea; North Atlantic Ocean,Very Small,River (Tide Gates),Unknown,Small,51,2.116667
Calais, ,France,English Channel; North Atlantic Ocean,Small,Coastal (Breakwater),Unknown,Small,50.966667,1.85
Boulogne-Sur-Mer, ,France,English Channel; North Atlantic Ocean,Medium,River (Tide Gates),Unknown,Large,50.733333,1.6
Le Treport,Treport,France,English Channel; North Atlantic Ocean,Very Small,River (Tide Gates),Unknown,Small,50.066667,1.366667
Dieppe, ,France,English Channel; North Atlantic Ocean,Small,Canal or Lake,Unknown,Small,49.933333,1.083333
Fecamp, ,France,English Channel; North Atlantic Ocean,Small,Canal or Lake,Unknown,Small,49.766667,0.366667
Port Du Havre-Antifer, ,France,English Channel; North Atlantic Ocean,Small,Coastal (Breakwater),Unknown,Unknown,49.65,0.15
Port Of Le Havre, ,France,English Channel; North Atlantic Ocean,Large,River (Tide Gates),Unknown,Medium,49.483333,0.116667
Port Of Rouen, ,France,English Channel; North Atlantic Ocean,Large,River (Natural),Unknown,Large,49.45,1.066667
Honfleur, ,France,English Channel; North Atlantic Ocean,Very Small,River (Tide Gates),Unknown,Unknown,49.416667,0.216667
Deauville, ,France,English Channel; North Atlantic Ocean,Very Small,Canal or Lake,Unknown,Small,49.366667,0.083333
Port De Caen,Ouistreham,France,English Channel; North Atlantic Ocean,Small,Canal or Lake,Unknown,Large,49.183333,-0.35
Ouistreham, ,France,English Channel; North Atlantic Ocean,Very Small,Canal or Lake,Unknown,Unknown,49.283333,-0.25
Rade De Cherbourg, ,France,English Channel; North Atlantic Ocean,Large,Coastal (Tide Gates),Unknown,Large,49.65,-1.633333
Granville, ,France,English Channel; North Atlantic Ocean,Very Small,Coastal (Tide Gates),Unknown,Small,48.833333,-1.6
Saint-Malo, ,France,English Channel; North Atlantic Ocean,Small,Coastal (Tide Gates),Unknown,Medium,48.65,-2.016667
Le Legue,St Brieuc,France,English Channel; North Atlantic Ocean,Very Small,River (Tide Gates),Unknown,Unknown,48.533333,-2.75
Paimpol, ,France,English Channel; North Atlantic Ocean,Very Small,River (Tide Gates),Unknown,Small,48.783333,-3.05
Pontrieux, ,France,English Channel; North Atlantic Ocean,Very Small,Coastal (Breakwater),Unknown,Unknown,48.7,-3.15
Treguier, ,France,English Channel; North Atlantic Ocean,Very Small,River (Natural),Unknown,Unknown,48.783333,-3.233333
Morlaix, ,France,English Channel; North Atlantic Ocean,Small,River (Tide Gates),Unknown,Medium,48.583333,-3.833333
Port De Roscoff-Bloscon, ,France,English Channel; North Atlantic Ocean,Very Small,Coastal (Breakwater),Unknown,Medium,48.733333,-3.983333
Concarneau, ,France,Bay of Biscay; North Atlantic Ocean,Very Small,Coastal (Breakwater),Unknown,Small,47.866667,-3.916667
Lorient, ,France,Bay of Biscay; North Atlantic Ocean,Medium,River (Natural),Unknown,Small,47.75,-3.35
St Nazaire, ,France,Bay of Biscay; North Atlantic Ocean,Medium,River (Tide Gates),Unknown,Unknown,47.283333,-2.2
Donges, ,France,Bay of Biscay; North Atlantic Ocean,Small,River (Natural),Unknown,Unknown,47.3,-2.066667
Nantes, ,France,Bay of Biscay; North Atlantic Ocean,Medium,River (Natural),Unknown,Medium,47.2,-1.566667
Les Sables D' Olonne, ,France,Bay of Biscay; North Atlantic Ocean,Medium,River (Basins),Unknown,Unknown,46.5,-1.8
La Pallice, ,France,Bay of Biscay; North Atlantic Ocean,Medium,Coastal (Tide Gates),Unknown,Unknown,46.166667,-1.216667
Le Verdon, ,France,Bay of Biscay; North Atlantic Ocean,Small,River (Natural),Unknown,Unknown,45.55,-1.05
Pauillac, ,France,Bay of Biscay; North Atlantic Ocean,Small,River (Natural),Unknown,Unknown,45.2,-0.75
Blaye, ,France,Bay of Biscay; North Atlantic Ocean,Small,River (Natural),Unknown,Unknown,45.133333,-0.666667
Ambes,Bec Dambes,France,Bay of Biscay; North Atlantic Ocean,Small,River (Natural),Unknown,Unknown,45.016667,-0.533333
Bordeaux, ,France,Bay of Biscay; North Atlantic Ocean,Large,River (Tide Gates),Unknown,Unknown,44.866667,-0.566667
Bayonne, ,France,Bay of Biscay; North Atlantic Ocean,Medium,River (Natural),Unknown,Unknown,43.5,-1.466667
Port-Vendres,Vendres,France,Gulf of Lion; Mediterranean Sea; North Atlantic Ocean,Small,Coastal (Breakwater),Unknown,Unknown,42.516667,3.116667
Port-La-Nouvelle,La Nouvelle,France,Gulf of Lion; Mediterranean Sea; North Atlantic Ocean,Small,Canal or Lake,Unknown,Small,43.016667,3.066667
Sete, ,France,Gulf of Lion; Mediterranean Sea; North Atlantic Ocean,Small,Coastal (Breakwater),Unknown,Large,43.4,3.7
Port Saint Louis Du Rhone,St Louis Du Rhone,France,Gulf of Lion; Mediterranean Sea; North Atlantic Ocean,Small,Canal or Lake,Unknown,Small,43.383333,4.816667
Fos, ,France,Gulf of Lion; Mediterranean Sea; North Atlantic Ocean,Very Small,Coastal (Breakwater),Unknown,Small,43.416667,4.883333
Port-de-Bouc,Lavera,France,Gulf of Lion; Mediterranean Sea; North Atlantic Ocean,Small,Coastal (Breakwater),Unknown,Small,43.4,4.983333
Marseille, ,France,Gulf of Lion; Mediterranean Sea; North Atlantic Ocean,Small,Coastal (Breakwater),Unknown,Small,43.316667,5.366667
Toulon, ,France,Mediterranean Sea; North Atlantic Ocean,Large,Coastal (Breakwater),Unknown,Medium,43.1,5.916667
Saint-Tropez, ,France,Mediterranean Sea; North Atlantic Ocean,Very Small,Coastal (Breakwater),Unknown,Small,43.266667,6.633333
Saint-Raphael, ,France,Mediterranean Sea; North Atlantic Ocean,Very Small,Coastal (Breakwater),Unknown,Small,43.416667,6.766667
Cannes, ,France,Mediterranean Sea; North Atlantic Ocean,Small,Coastal (Natural),Unknown,Small,43.55,7.016667
Antibes, ,France,Mediterranean Sea; North Atlantic Ocean,Very Small,Coastal (Breakwater),Unknown,Small,43.583333,7.133333
Nice, ,France,Mediterranean Sea; North Atlantic Ocean,Small,Coastal (Breakwater),Unknown,Small,43.7,7.283333
Villefranche, ,France,Mediterranean Sea; North Atlantic Ocean,Very Small,Coastal (Breakwater),Unknown,Small,43.7,7.316667
Bastia, ,France,Ligurian Sea; Mediterranean Sea; North Atlantic Ocean,Very Small,Coastal (Breakwater),Unknown,Small,42.7,9.45
Porto Vecchio, ,France,Tyrrhenian Sea; Mediterranean Sea; North Atlantic Ocean,Very Small,Coastal (Natural),Unknown,Unknown,41.583333,9.283333
Bonifacio, ,France,Mediterranean Sea; North Atlantic Ocean,Very Small,Coastal (Natural),Unknown,Unknown,41.383333,9.166667
Port De Propriano, ,France,Mediterranean Sea; North Atlantic Ocean,Very Small,Coastal (Breakwater),Unknown,Unknown,41.683333,8.9
Port D' Ajaccio, ,France,Mediterranean Sea; North Atlantic Ocean,Small,Coastal (Breakwater),Unknown,Unknown,41.916667,8.75
Calvi, ,France,Ligurian Sea; Mediterranean Sea; North Atlantic Ocean,Very Small,Coastal (Natural),Unknown,Unknown,42.566667,8.75
L'ile Rousse, ,France,Ligurian Sea; Mediterranean Sea; North Atlantic Ocean,Very Small,Coastal (Breakwater),Unknown,Unknown,42.633333,8.933333
Rade De Brest, ,France,North Atlantic Ocean,Large,Coastal (Breakwater),Military,Large,48.383333,-4.5
Degrad Des Cannes, ,French Guiana,North Atlantic Ocean,Very Small,River (Natural),Unknown,Unknown,4.85,-52.266667
Vaitape,Boro Boro,French Polynesia,South Pacific Ocean,Very Small,Coastal (Breakwater),Unknown,Unknown,-16.5,-151.75
Uturoa, ,French Polynesia,South Pacific Ocean,Very Small,Coastal (Natural),Unknown,Unknown,-16.733333,-151.45
Papeete, ,French Polynesia,South Pacific Ocean,Small,Coastal (Natural),Unknown,Medium,-17.533333,-149.583333
Port Rikitea, ,French Polynesia,South Pacific Ocean,Very Small,Coastal (Natural),Unknown,Unknown,-23.116667,-134.966667
Atuona, ,French Polynesia,South Pacific Ocean,Very Small,Coastal (Natural),Unknown,Unknown,-9.816667,-139.033333
Baie Taiohae,Anne Marie Bay,French Polynesia,South Pacific Ocean,Very Small,Coastal (Natural),Unknown,Unknown,-8.933333,-140.083333
Libreville, ,Gabon,Gulf of Guinea; North Atlantic Ocean,Medium,Open Roadstead,Unknown,Unknown,0.383333,9.45
Port Owendo, ,Gabon,Gulf of Guinea; North Atlantic Ocean,Small,Open Roadstead,Unknown,Small,0.283333,9.5
Port Gentil, ,Gabon,Gulf of Guinea; North Atlantic Ocean,Medium,Coastal (Natural),Unknown,Unknown,-0.7,8.8
Cap Lopez, ,Gabon,Gulf of Guinea; North Atlantic Ocean,Very Small,Open Roadstead,Unknown,Unknown,-0.633333,8.716667
Oguendjo Terminal, ,Gabon,South Atlantic Ocean,Small,Open Roadstead,Unknown,Unknown,-1.466667,8.916667
Etame Terminal, ,Gabon,South Atlantic Ocean,Very Small,Open Roadstead,Unknown,Unknown,-3.75,10.516667
Gamba Oil Terminal, ,Gabon,South Atlantic Ocean,Very Small,Open Roadstead,Unknown,Unknown,-2.833333,10
M'bya Oil Terminal, ,Gabon,South Atlantic Ocean,Very Small,Open Roadstead,Unknown,Unknown,-3.883333,10.933333
Sokhumi, ,Georgia,Black Sea; North Atlantic Ocean,Very Small,Open Roadstead,Unknown,Unknown,42.983333,40.983333
Poti, ,Georgia,Black Sea; North Atlantic Ocean,Small,Coastal (Breakwater),Unknown,Medium,42.15,41.583333
Supsa Marine Terminal, ,Georgia,Black Sea; North Atlantic Ocean,Very Small,Open Roadstead,Unknown,Unknown,42.1,41.716667
Batumi, ,Georgia,Black Sea; North Atlantic Ocean,Small,Coastal (Breakwater),Unknown,Small,41.65,41.65
Wolgast, ,Germany,Baltic Sea; North Atlantic Ocean,Very Small,River (Natural),Unknown,Small,54.05,13.783333
Sassnitz,Sabnitz,Germany,Baltic Sea; North Atlantic Ocean,Very Small,Open Roadstead,Unknown,Small,54.516667,13.65
Stralsund, ,Germany,Baltic Sea; North Atlantic Ocean,Very Small,Coastal (Breakwater),Unknown,Medium,54.316667,13.1
Rostock,Petersdorf,Germany,Baltic Sea; North Atlantic Ocean,Large,River (Natural),Unknown,Large,54.1,12.133333
Wismar, ,Germany,Baltic Sea; North Atlantic Ocean,Small,Coastal (Natural),Unknown,Medium,53.9,11.466667
Lubeck-Travemunde, ,Germany,Baltic Sea; North Atlantic Ocean,Small,River (Natural),Unknown,Medium,53.966667,10.883333
Lubeck, ,Germany,Baltic Sea; North Atlantic Ocean,Medium,Canal or Lake,Unknown,Medium,53.883333,10.7
Heiligenhafen, ,Germany,Baltic Sea; North Atlantic Ocean,Very Small,Coastal (Breakwater),Unknown,Small,54.366667,10.983333
Kiel, ,Germany,Baltic Sea; North Atlantic Ocean,Large,River (Basins),Unknown,Small,54.316667,10.133333
Eckernforde, ,Germany,Baltic Sea; North Atlantic Ocean,Small,River (Basins),Unknown,Unknown,54.483333,9.833333
Kappeln, ,Germany,Baltic Sea; North Atlantic Ocean,Very Small,River (Natural),Unknown,Small,54.666667,9.933333
Flensburg, ,Germany,Baltic Sea; North Atlantic Ocean,Small,River (Basins),Unknown,Small,54.8,9.433333
Husum, ,Germany,North Sea; North Atlantic Ocean,Very Small,River (Natural),Unknown,Small,54.483333,9.05
Brunsbuttel Elbahafen, ,Germany,North Sea; North Atlantic Ocean,Very Small,River (Natural),Unknown,Small,53.883333,9.166667
Brunsbuttel Canal Terminals, ,Germany,North Sea; North Atlantic Ocean,Small,Canal or Lake,Unknown,Small,53.9,9.15
Itzehoe, ,Germany,North Sea; North Atlantic Ocean,Very Small,River (Natural),Unknown,Small,53.916667,9.516667
Neuhaus, ,Germany,North Sea; North Atlantic Ocean,Very Small,River (Natural),Unknown,Small,53.8,9.033333
Gluckstadt, ,Germany,North Sea; North Atlantic Ocean,Small,Coastal (Tide Gates),Unknown,Medium,53.783333,9.416667
Butzfleth, ,Germany,North Sea; North Atlantic Ocean,Small,Open Roadstead,Unknown,Small,53.65,9.516667
Bremerhaven, ,Germany,North Sea; North Atlantic Ocean,Large,River (Tide Gates),Unknown,Large,53.533333,8.583333
Nordenham, ,Germany,North Sea; North Atlantic Ocean,Small,River (Natural),Unknown,Small,53.483333,8.483333
Brake, ,Germany,North Sea; North Atlantic Ocean,Medium,River (Tide Gates),Unknown,Unknown,53.333333,8.483333
Bremen, ,Germany,North Sea; North Atlantic Ocean,Large,River (Tide Gates),Unknown,Unknown,53.133333,8.766667
Wilhelmshaven, ,Germany,North Sea; North Atlantic Ocean,Small,Coastal (Tide Gates),Unknown,Small,53.533333,8.166667
Emden, ,Germany,North Sea; North Atlantic Ocean,Medium,River (Tide Gates),Unknown,Medium,53.333333,7.183333
Leer, ,Germany,North Sea; North Atlantic Ocean,Very Small,River (Tide Gates),Unknown,Small,53.233333,7.45
Papenburg, ,Germany,North Sea; North Atlantic Ocean,Small,Canal or Lake,Unknown,Unknown,53.1,7.383333
Takoradi, ,Ghana,Gulf of Guinea; North Atlantic Ocean,Medium,Coastal (Breakwater),Unknown,Large,4.883333,-1.733333
Saltpond, ,Ghana,Gulf of Guinea; North Atlantic Ocean,Very Small,Open Roadstead,Unknown,Unknown,5.2,-1.05
Tema, ,Ghana,Gulf of Guinea; North Atlantic Ocean,Small,Coastal (Breakwater),Unknown,Medium,5.631944444,0.015555556
Europa Point, ,Gibraltar,Strait of Gibraltar; North Atlantic Ocean,Medium,Coastal (Breakwater),Unknown,Small,36.133333,-5.35
Kerkira,Corfu,Greece,Ionian Sea; Mediterranean Sea; North Atlantic Ocean,Medium,Open Roadstead,Unknown,Small,39.616667,19.933333
Preveza, ,Greece,Ionian Sea; Mediterranean Sea; North Atlantic Ocean,Very Small,Coastal (Natural),Unknown,Unknown,38.95,20.75
Argostolion, ,Greece,Mediterranean Sea; North Atlantic Ocean,Very Small,Coastal (Natural),Unknown,Unknown,38.183333,20.516667
Mesolongion, ,Greece,Ionian Sea; Mediterranean Sea; North Atlantic Ocean,Very Small,Coastal (Breakwater),Unknown,Unknown,38.366667,21.416667
Itea,Salona,Greece,Ionian Sea; Mediterranean Sea; North Atlantic Ocean,Very Small,Open Roadstead,Unknown,Unknown,38.433333,22.416667
Aigio,Aegion; Ormos Aiyiou; Vostitza,Greece,Ionian Sea; Mediterranean Sea; North Atlantic Ocean,Very Small,Open Roadstead,Unknown,Small,38.25,22.083333
Patrai,Patari Harbor; Patras; Patron,Greece,Ionian Sea; Mediterranean Sea; North Atlantic Ocean,Small,Coastal (Breakwater),Unknown,Small,38.25,21.733333
Katakolon, ,Greece,Mediterranean Sea; North Atlantic Ocean,Very Small,Coastal (Breakwater),Unknown,Small,37.65,21.316667
Pilos,Navarin; Navarinou; Neo Kastro; Pilos,Greece,Mediterranean Sea; North Atlantic Ocean,Very Small,Coastal (Natural),Unknown,Unknown,36.9,21.666667
Kalamata,Kalamon,Greece,Mediterranean Sea; North Atlantic Ocean,Small,Coastal (Breakwater),Unknown,Small,37.016667,22.116667
Yithion,Githion; Gythion,Greece,Mediterranean Sea; North Atlantic Ocean,Very Small,Open Roadstead,Unknown,Unknown,36.75,22.566667
Navplio,Nauplia,Greece,Aegean Sea; Mediterranean Sea; North Atlantic Ocean,Very Small,Coastal (Breakwater),Unknown,Small,37.566667,22.8
Spetses, ,Greece,Aegean Sea; Mediterranean Sea; North Atlantic Ocean,Very Small,Open Roadstead,Unknown,Unknown,37.266667,23.166667
Lavrio, ,Greece,Aegean Sea; Mediterranean Sea; North Atlantic Ocean,Very Small,Coastal (Breakwater),Unknown,Unknown,37.7,24.066667
Megara Oil Terminal, ,Greece,Aegean Sea; Mediterranean Sea; North Atlantic Ocean,Very Small,Open Roadstead,Unknown,Unknown,37.966667,23.4
Ayios Nikolaos,Arapis,Greece,Aegean Sea; Mediterranean Sea; North Atlantic Ocean,Very Small,Coastal (Breakwater),Unknown,Unknown,37.983333,23.533333
Elevsis, ,Greece,Aegean Sea; Mediterranean Sea; North Atlantic Ocean,Small,Open Roadstead,Unknown,Small,38.033333,23.55
Pakhi Oil Terminal, ,Greece,Aegean Sea; Mediterranean Sea; North Atlantic Ocean,Very Small,Open Roadstead,Unknown,Unknown,37.966667,23.383333
Perama, ,Greece,Aegean Sea; Mediterranean Sea; North Atlantic Ocean,Small,Open Roadstead,Unknown,Unknown,37.966667,23.566667
Piraievs,Athens; Dhrapetsdna,Greece,Aegean Sea; Mediterranean Sea; North Atlantic Ocean,Large,Coastal (Breakwater),Unknown,Medium,37.933333,23.65
Ormos Mikro Vathi,Mikro Vathi,Greece,Aegean Sea; Mediterranean Sea; North Atlantic Ocean,Very Small,Coastal (Natural),Unknown,Small,38.433333,23.6
Dhiavlos Steno,Chalkis; Khalkis; Steno Pass,Greece,Aegean Sea; Mediterranean Sea; North Atlantic Ocean,Very Small,Coastal (Natural),Unknown,Unknown,38.45,23.6
Ormos Aliveriou, ,Greece,Aegean Sea; Mediterranean Sea; North Atlantic Ocean,Medium,Coastal (Breakwater),Unknown,Unknown,38.383333,24.05
Astakos, ,Greece,Ionian Sea; Mediterranean Sea; North Atlantic Ocean,Small,Coastal (Natural),Unknown,Unknown,38.483333,21.1
Aspropirgos, ,Greece,Aegean Sea; Mediterranean Sea; North Atlantic Ocean,Very Small,Open Roadstead,Unknown,Small,38.033333,23.6
Porthmos Evripou,Euripo Strait; Evripou Porthmos,Greece,Aegean Sea; Mediterranean Sea; North Atlantic Ocean,Very Small,Coastal (Natural),Unknown,Unknown,38.466667,23.583333
Larimna,Larmes,Greece,Aegean Sea; Mediterranean Sea; North Atlantic Ocean,Very Small,Coastal (Natural),Unknown,Unknown,38.566667,23.283333
Kymassi, ,Greece,Aegean Sea; Mediterranean Sea; North Atlantic Ocean,Very Small,Coastal (Natural),Unknown,Unknown,38.833333,23.466667
Achladi, ,Greece,Aegean Sea; Mediterranean Sea; North Atlantic Ocean,Very Small,Coastal (Natural),Unknown,Unknown,38.9,22.816667
Stilis, ,Greece,Aegean Sea; Mediterranean Sea; North Atlantic Ocean,Very Small,Coastal (Natural),Unknown,Small,38.916667,22.616667
Tsingeli, ,Greece,Aegean Sea; Mediterranean Sea; North Atlantic Ocean,Very Small,Coastal (Natural),Unknown,Unknown,39.166667,22.85
Volos, ,Greece,Aegean Sea; Mediterranean Sea; North Atlantic Ocean,Medium,Coastal (Breakwater),Unknown,Small,39.366667,22.95
Miliana,Melina,Greece,Aegean Sea; Mediterranean Sea; North Atlantic Ocean,Very Small,Coastal (Natural),Unknown,Unknown,39.166667,23.216667
Thessaloniki, ,Greece,Aegean Sea; Mediterranean Sea; North Atlantic Ocean,Medium,Coastal (Natural),Unknown,Medium,40.633333,22.933333
Yerakini,Gerakani,Greece,Aegean Sea; Mediterranean Sea; North Atlantic Ocean,Very Small,Coastal (Natural),Unknown,Unknown,40.266667,23.466667
Stratoni, ,Greece,Aegean Sea; Mediterranean Sea; North Atlantic Ocean,Very Small,Coastal (Natural),Unknown,Unknown,40.516667,23.833333
Kavala, ,Greece,Aegean Sea; Mediterranean Sea; North Atlantic Ocean,Small,Coastal (Breakwater),Unknown,Small,40.933333,24.4
Alexandroupoli, ,Greece,Aegean Sea; Mediterranean Sea; North Atlantic Ocean,Medium,Coastal (Breakwater),Unknown,Large,40.833333,25.883333
Mitilini, ,Greece,Aegean Sea; Mediterranean Sea; North Atlantic Ocean,Small,Coastal (Breakwater),Unknown,Unknown,39.1,26.566667
Plomarion,Potamos,Greece,Aegean Sea; Mediterranean Sea; North Atlantic Ocean,Very Small,Coastal (Breakwater),Unknown,Unknown,38.983333,26.366667
Vrakhonisis Kallonis,Kalloni,Greece,Aegean Sea; Mediterranean Sea; North Atlantic Ocean,Very Small,Coastal (Natural),Unknown,Unknown,39.083333,26.083333
